     3.03           OBSERVATION DATA    M: Mixed            RINEX VERSION / TYPE
CONVBIN demo5 b34g                      20231119 143632 UTC PGM / RUN BY / DATE 
log: 20230910-MSM7.rtcm                                     COMMENT             
format: RTCM 3                                              COMMENT             
format: RTCM 3                                              COMMENT             
log: 20230910-MSM7.rtcm                                     COMMENT             
0000                                                        MARKER NAME         
                                                            MARKER NUMBER       
                                                            MARKER TYPE         
                                                            OBSERVER / AGENCY   
3614512             SEPT MOSAIC-X5      4.10.0.1            REC # / TYPE / VERS 
Unknown                                                     ANT # / TYPE        
  4030581.7887   316269.3220  4916722.4781                  APPROX POSITION XYZ 
        0.0000        0.0000        0.0000                  ANTENNA: DELTA H/E/N
G   20 C1C L1C D1C S1C C1W L1W D1W S1W C2W L2W D2W S2W C2L  SYS / # / OBS TYPES 
       L2L D2L S2L C5Q L5Q D5Q S5Q                          SYS / # / OBS TYPES 
E   16 C1C L1C D1C S1C C7Q L7Q D7Q S7Q C5Q L5Q D5Q S5Q C8Q  SYS / # / OBS TYPES 
       L8Q D8Q S8Q                                          SYS / # / OBS TYPES 
  2023    09    10    11    30   02.0000000     GPS         TIME OF FIRST OBS   
  2023    09    10    11    30   02.0000000     GPS         TIME OF LAST OBS    
G L1C                                                       SYS / PHASE SHIFT   
G L1W  0.00000                                              SYS / PHASE SHIFT   
G L2W  0.00000                                              SYS / PHASE SHIFT   
G L2L  0.00000                                              SYS / PHASE SHIFT   
G L5Q  0.00000                                              SYS / PHASE SHIFT   
E L1C  0.00000                                              SYS / PHASE SHIFT   
E L7Q  0.00000                                              SYS / PHASE SHIFT   
E L5Q  0.00000                                              SYS / PHASE SHIFT   
E L8Q  0.00000                                              SYS / PHASE SHIFT   
  0                                                         GLONASS SLOT / FRQ #
                                                            GLONASS COD/PHS/BIS 
                                                            END OF HEADER       
> 2023 09 10 11 30 02.0000000  0 19                     
G03  21471573.928   112833865.0361      -2034.659          46.500    21471573.821   112833865.0361      -2034.659          46.813    21471577.517    87922499.6011      -1585.450          46.813    21471577.495    87922496.6021      -1585.446          43.750    21471576.045    84259057.8111      -1519.361          49.375  
G04  20256806.385   106450250.3271        236.448          48.250    20256806.135   106450250.3271        236.448          39.938    20256807.372    82948258.8421        184.243          39.938    20256807.090    82948247.8491        184.231          48.000    20256808.907    79492089.2671        176.583          52.125  
G06  21145604.800   111120922.8621       2185.450          47.875    21145604.760   111120922.8621       2185.450          37.563    21145608.875    86587757.6071       1702.943          37.563    21145608.319    86587759.6151       1702.858          44.563    21145607.057    82979936.6251       1631.994          49.875  
G09  20773304.984   109164483.8011       2186.957          49.375    20773304.527   109164483.8011       2186.957          51.063    20773306.423    85063267.7521       1704.118          51.063    20773306.998    85063256.7621       1704.120          45.063    20773305.824    81518962.1041       1633.089          51.438  
G11  24487017.998   128680152.6411       3810.538          39.438    24487017.958   128680152.6411       3810.538          23.125    24487021.916   100270261.1221       2969.244          23.125    24487021.192   100270261.1301       2969.241          38.625    24487024.359    96092341.6341       2845.523          42.938  
G17  23266703.170   122267296.5471      -2587.274          42.813    23266702.803   122267296.5471      -2587.274          28.375    23266706.792    95273209.8251      -2016.057          28.375    23266706.679    95273206.8191      -2016.140          38.750                                                                  
G19  22201403.968   116669138.9081      -1953.914          44.000    22201402.712   116669138.9081      -1953.914          31.375    22201405.017    90911008.3081      -1522.530          31.375                                                                                                                                  
G25                                                                                                                                                                                                                                                                  25402335.338    99684230.2721       -604.583          28.000  
G28  25038284.083   131577046.8411      -2585.067          36.000    25038283.838   131577046.8411      -2585.067          14.875    25038288.264   102527579.2161      -2014.335          14.875    25038287.313   102527579.2361      -2014.445          35.000    25038291.799    98255612.0921      -1930.497          41.563  
G31  23230415.498   122076667.5291      -1377.340          41.938    23230415.154   122076667.5291      -1377.340          37.750    23230417.467    95124687.9361      -1073.256          37.750    23230417.333    95124687.9531      -1073.318          38.125                                                                  
E03                                                                  28603345.528   115173821.2951       2505.164          32.125    28603348.818   112245685.0041       2441.176          32.938                                                                  
E04  27080559.643   142309266.2731      -2446.132          38.375    27080562.947   109042160.3701      -1874.398          42.813    27080564.517   106269906.6411      -1826.734          42.563    27080564.285   107656034.5501      -1850.542          45.750  
E05  24308206.763   127740529.8081       2215.937          46.063    24308208.926    97879129.6641       1697.927          48.188    24308210.425    95390686.1101       1654.755          48.188    24308210.181    96634909.9311       1676.352          51.188  
E09  23615501.924   124100299.6731       -598.100          47.438    23615502.498    95089847.8691       -458.290          49.563    23615503.963    92672313.2361       -446.623          49.000    23615503.668    93881082.5941       -452.453          52.313  
E11  26947641.244   141610720.4821      -2875.575          29.375    26947647.115   108506891.5461      -2203.426          33.625    26947650.004   105748244.4541      -2147.456          35.063    26947649.202   107127570.0431      -2175.476          37.375  
E15  27600223.901   145040153.2161       3198.952          38.125    27600229.419   111134686.8721       2451.194          40.500    27600231.578   108309234.4371       2388.896          40.813    27600230.944   109721962.6961       2420.058          43.688  
E21  28616395.230   150380185.1651         99.503          34.063    28616400.082   115226390.4831         76.098          37.188    28616402.549   112296914.8131         74.211          39.125    28616401.521   113761655.1911         75.161          41.188  
E34  23889705.402   125541261.2051       1349.923          47.375    23889706.836    96193965.7291       1034.372          48.688    23889708.170    93748362.5781       1008.075          48.563    23889708.011    94971167.1951       1021.222          51.625  
E36  24101089.593   126652066.6901      -1581.971          46.563    24101092.011    97045091.5501      -1212.206          49.188    24101093.518    94577847.7091      -1181.369          48.375    24101093.269    95811471.1721      -1196.777          51.813  
