     3.03           OBSERVATION DATA    G: GPS              RINEX VERSION / TYPE
CONVBIN demo5 b34g                      20231119 144035 UTC PGM / RUN BY / DATE 
log: 20230910-MSM7.rtcm                                     COMMENT             
format: RTCM 3                                              COMMENT             
format: RTCM 3                                              COMMENT             
log: 20230910-MSM7.rtcm                                     COMMENT             
0000                                                        MARKER NAME         
                                                            MARKER NUMBER       
                                                            MARKER TYPE         
                                                            OBSERVER / AGENCY   
3614512             SEPT MOSAIC-X5      4.10.0.1            REC # / TYPE / VERS 
Unknown                                                     ANT # / TYPE        
  4030581.7887   316269.3220  4916722.4781                  APPROX POSITION XYZ 
        0.0000        0.0000        0.0000                  ANTENNA: DELTA H/E/N
G   20 C1C L1C D1C S1C C1W L1W D1W S1W C2W L2W D2W S2W C2L  SYS / # / OBS TYPES 
       L2L D2L S2L C5Q L5Q D5Q S5Q                          SYS / # / OBS TYPES 
  2023    09    10    11    30   02.0000000     GPS         TIME OF FIRST OBS   
  2023    09    10    11    30   02.0000000     GPS         TIME OF LAST OBS    
G L1C                                                       SYS / PHASE SHIFT   
G L1W  0.00000                                              SYS / PHASE SHIFT   
G L2W  0.00000                                              SYS / PHASE SHIFT   
G L2L  0.00000                                              SYS / PHASE SHIFT   
G L5Q  0.00000                                              SYS / PHASE SHIFT   
  0                                                         GLONASS SLOT / FRQ #
                                                            GLONASS COD/PHS/BIS 
                                                            END OF HEADER       
> 2023 09 10 11 30 02.0000000  0 10                     
G03  21471573.928   112833865.0361      -2034.659          46.500    21471573.821   112833865.0361      -2034.659          46.813    21471577.517    87922499.6011      -1585.450          46.813    21471577.495    87922496.6021      -1585.446          43.750    21471576.045    84259057.8111      -1519.361          49.375  
G04  20256806.385   106450250.3271        236.448          48.250    20256806.135   106450250.3271        236.448          39.938    20256807.372    82948258.8421        184.243          39.938    20256807.090    82948247.8491        184.231          48.000    20256808.907    79492089.2671        176.583          52.125  
G06  21145604.800   111120922.8621       2185.450          47.875    21145604.760   111120922.8621       2185.450          37.563    21145608.875    86587757.6071       1702.943          37.563    21145608.319    86587759.6151       1702.858          44.563    21145607.057    82979936.6251       1631.994          49.875  
G09  20773304.984   109164483.8011       2186.957          49.375    20773304.527   109164483.8011       2186.957          51.063    20773306.423    85063267.7521       1704.118          51.063    20773306.998    85063256.7621       1704.120          45.063    20773305.824    81518962.1041       1633.089          51.438  
G11  24487017.998   128680152.6411       3810.538          39.438    24487017.958   128680152.6411       3810.538          23.125    24487021.916   100270261.1221       2969.244          23.125    24487021.192   100270261.1301       2969.241          38.625    24487024.359    96092341.6341       2845.523          42.938  
G17  23266703.170   122267296.5471      -2587.274          42.813    23266702.803   122267296.5471      -2587.274          28.375    23266706.792    95273209.8251      -2016.057          28.375    23266706.679    95273206.8191      -2016.140          38.750                                                                  
G19  22201403.968   116669138.9081      -1953.914          44.000    22201402.712   116669138.9081      -1953.914          31.375    22201405.017    90911008.3081      -1522.530          31.375                                                                                                                                  
G25                                                                                                                                                                                                                                                                  25402335.338    99684230.2721       -604.583          28.000  
G28  25038284.083   131577046.8411      -2585.067          36.000    25038283.838   131577046.8411      -2585.067          14.875    25038288.264   102527579.2161      -2014.335          14.875    25038287.313   102527579.2361      -2014.445          35.000    25038291.799    98255612.0921      -1930.497          41.563  
G31  23230415.498   122076667.5291      -1377.340          41.938    23230415.154   122076667.5291      -1377.340          37.750    23230417.467    95124687.9361      -1073.256          37.750    23230417.333    95124687.9531      -1073.318          38.125                                                                  
