     3.03           OBSERVATION DATA    E: Galielo          RINEX VERSION / TYPE
CONVBIN demo5 b34g                      20231119 144106 UTC PGM / RUN BY / DATE 
log: 20230910-MSM7.rtcm                                     COMMENT             
format: RTCM 3                                              COMMENT             
format: RTCM 3                                              COMMENT             
log: 20230910-MSM7.rtcm                                     COMMENT             
0000                                                        MARKER NAME         
                                                            MARKER NUMBER       
                                                            MARKER TYPE         
                                                            OBSERVER / AGENCY   
3614512             SEPT MOSAIC-X5      4.10.0.1            REC # / TYPE / VERS 
Unknown                                                     ANT # / TYPE        
  4030581.7887   316269.3220  4916722.4781                  APPROX POSITION XYZ 
        0.0000        0.0000        0.0000                  ANTENNA: DELTA H/E/N
E   16 C1C L1C D1C S1C C7Q L7Q D7Q S7Q C5Q L5Q D5Q S5Q C8Q  SYS / # / OBS TYPES 
       L8Q D8Q S8Q                                          SYS / # / OBS TYPES 
  2023    09    10    11    30   02.0000000     GPS         TIME OF FIRST OBS   
  2023    09    10    11    30   02.0000000     GPS         TIME OF LAST OBS    
E L1C  0.00000                                              SYS / PHASE SHIFT   
E L7Q  0.00000                                              SYS / PHASE SHIFT   
E L5Q  0.00000                                              SYS / PHASE SHIFT   
E L8Q  0.00000                                              SYS / PHASE SHIFT   
  0                                                         GLONASS SLOT / FRQ #
                                                            GLONASS COD/PHS/BIS 
                                                            END OF HEADER       
> 2023 09 10 11 30 02.0000000  0  9                     
E03                                                                  28603345.528   115173821.2951       2505.164          32.125    28603348.818   112245685.0041       2441.176          32.938                                                                  
E04  27080559.643   142309266.2731      -2446.132          38.375    27080562.947   109042160.3701      -1874.398          42.813    27080564.517   106269906.6411      -1826.734          42.563    27080564.285   107656034.5501      -1850.542          45.750  
E05  24308206.763   127740529.8081       2215.937          46.063    24308208.926    97879129.6641       1697.927          48.188    24308210.425    95390686.1101       1654.755          48.188    24308210.181    96634909.9311       1676.352          51.188  
E09  23615501.924   124100299.6731       -598.100          47.438    23615502.498    95089847.8691       -458.290          49.563    23615503.963    92672313.2361       -446.623          49.000    23615503.668    93881082.5941       -452.453          52.313  
E11  26947641.244   141610720.4821      -2875.575          29.375    26947647.115   108506891.5461      -2203.426          33.625    26947650.004   105748244.4541      -2147.456          35.063    26947649.202   107127570.0431      -2175.476          37.375  
E15  27600223.901   145040153.2161       3198.952          38.125    27600229.419   111134686.8721       2451.194          40.500    27600231.578   108309234.4371       2388.896          40.813    27600230.944   109721962.6961       2420.058          43.688  
E21  28616395.230   150380185.1651         99.503          34.063    28616400.082   115226390.4831         76.098          37.188    28616402.549   112296914.8131         74.211          39.125    28616401.521   113761655.1911         75.161          41.188  
E34  23889705.402   125541261.2051       1349.923          47.375    23889706.836    96193965.7291       1034.372          48.688    23889708.170    93748362.5781       1008.075          48.563    23889708.011    94971167.1951       1021.222          51.625  
E36  24101089.593   126652066.6901      -1581.971          46.563    24101092.011    97045091.5501      -1212.206          49.188    24101093.518    94577847.7091      -1181.369          48.375    24101093.269    95811471.1721      -1196.777          51.813  
