     3.03           OBSERVATION DATA    E: Galielo          RINEX VERSION / TYPE
CONVBIN demo5 b34g                      20231126 132204 UTC PGM / RUN BY / DATE 
log: 20230910-MSM7.rtcm                                     COMMENT             
format: RTCM 3                                              COMMENT             
format: RTCM 3                                              COMMENT             
log: 20230910-MSM7.rtcm                                     COMMENT             
0000                                                        MARKER NAME         
                                                            MARKER NUMBER       
                                                            MARKER TYPE         
                                                            OBSERVER / AGENCY   
3614512             SEPT MOSAIC-X5      4.10.0.1            REC # / TYPE / VERS 
Unknown                                                     ANT # / TYPE        
  4030581.7173   316269.1857  4916722.7347                  APPROX POSITION XYZ 
        0.0000        0.0000        0.0000                  ANTENNA: DELTA H/E/N
E   16 C1C L1C D1C S1C C7Q L7Q D7Q S7Q C5Q L5Q D5Q S5Q C8Q  SYS / # / OBS TYPES 
       L8Q D8Q S8Q                                          SYS / # / OBS TYPES 
  2023    09    10    11    30   01.0000000     GPS         TIME OF FIRST OBS   
  2023    09    10    11    55   18.0000000     GPS         TIME OF LAST OBS    
E L1C  0.00000                                              SYS / PHASE SHIFT   
E L7Q  0.00000                                              SYS / PHASE SHIFT   
E L5Q  0.00000                                              SYS / PHASE SHIFT   
E L8Q  0.00000                                              SYS / PHASE SHIFT   
  0                                                         GLONASS SLOT / FRQ #
                                                            GLONASS COD/PHS/BIS 
                                                            END OF HEADER       
> 2023 09 10 11 30 01.0000000  0  9                     
E03                                                                  28603967.632   115176325.9801       2503.884          32.563    28603970.838   112248125.9621       2440.599          32.688                                                                  
E04  27080094.192   142306819.6571      -2447.483          38.188    27080097.436   109040285.6831      -1875.340          42.813    27080098.932   106268079.6091      -1827.520          42.563    27080098.700   107654183.6901      -1851.436          45.688  
E05  24308628.413   127742745.4491       2214.995          45.938    24308630.571    97880827.3621       1697.197          48.250    24308632.056    95392340.6401       1654.055          48.188    24308631.810    96636586.0441       1675.629          51.188  
E09  23615388.025   124099701.2401       -599.021          47.250    23615388.623    95089389.3311       -459.071          49.500    23615390.081    92671866.3581       -447.374          49.000    23615389.789    93880629.8861       -453.227          52.313  
E11  26947093.849   141607844.5501      -2877.096          29.750    26947099.941   108504687.9061      -2204.361          33.750    26947102.728   105746096.8281      -2148.429          35.313    26947101.880   107125394.4071      -2176.393          37.625  
E15  27600832.813   145043351.7951       3197.770          38.063    27600838.085   111137137.7291       2450.305          40.313    27600840.139   108311622.9881       2388.015          40.813    27600839.603   109724382.4011       2419.146          43.625  
E21  28616414.042   150380284.2431         98.408          34.125    28616418.975   115226466.3761         75.630          37.313    28616421.287   112296988.7921         73.649          38.813    28616420.369   113761730.1281         74.639          41.063  
E34  23889962.230   125542610.8461       1349.008          47.313    23889963.681    96194999.8711       1033.625          48.625    23889965.014    93749370.4221       1007.367          48.563    23889964.839    94972188.1881       1020.495          51.625  
E36  24100788.536   126650484.3871      -1582.973          46.500    24100790.898    97043879.1361      -1212.954          49.125    24100792.392    94576666.1221      -1182.150          48.375    24100792.177    95810274.1711      -1197.548          51.750  
> 2023 09 10 11 30 02.0000000  0  9                     
E03                                                                  28603345.528   115173821.295        2505.164          32.125    28603348.818   112245685.004        2441.176          32.938                                                                  
E04  27080559.643   142309266.273       -2446.132          38.375    27080562.947   109042160.370       -1874.398          42.813    27080564.517   106269906.641       -1826.734          42.563    27080564.285   107656034.550       -1850.542          45.750  
E05  24308206.763   127740529.808        2215.937          46.063    24308208.926    97879129.664        1697.927          48.188    24308210.425    95390686.110        1654.755          48.188    24308210.181    96634909.931        1676.352          51.188  
E09  23615501.924   124100299.673        -598.100          47.438    23615502.498    95089847.869        -458.290          49.563    23615503.963    92672313.236        -446.623          49.000    23615503.668    93881082.594        -452.453          52.313  
E11  26947641.244   141610720.482       -2875.575          29.375    26947647.115   108506891.546       -2203.426          33.625    26947650.004   105748244.454       -2147.456          35.063    26947649.202   107127570.043       -2175.476          37.375  
E15  27600223.901   145040153.216        3198.952          38.125    27600229.419   111134686.872        2451.194          40.500    27600231.578   108309234.437        2388.896          40.813    27600230.944   109721962.696        2420.058          43.688  
E21  28616395.230   150380185.165          99.503          34.063    28616400.082   115226390.483          76.098          37.188    28616402.549   112296914.813          74.211          39.125    28616401.521   113761655.191          75.161          41.188  
E34  23889705.402   125541261.205        1349.923          47.375    23889706.836    96193965.729        1034.372          48.688    23889708.170    93748362.578        1008.075          48.563    23889708.011    94971167.195        1021.222          51.625  
E36  24101089.593   126652066.690       -1581.971          46.563    24101092.011    97045091.550       -1212.206          49.188    24101093.518    94577847.709       -1181.369          48.375    24101093.269    95811471.172       -1196.777          51.813  
> 2023 09 10 11 30 03.0000000  0  9                     
E03                                                                  28602723.698   115171316.577        2504.852          31.813    28602727.187   112243243.946        2441.235          33.000                                                                  
E04  27081025.016   142311712.883       -2446.546          38.250    27081028.534   109044035.036       -1874.675          42.938    27081030.102   106271733.649       -1826.896          42.688    27081029.857   107657885.387       -1850.779          45.875  
E05  24307785.136   127738314.360        2215.448          46.063    24307787.359    97877432.116        1697.555          48.250    24307788.836    95389031.719        1654.325          48.250    24307788.592    96633233.961        1675.937          51.250  
E09  23615615.826   124100898.342        -598.703          47.375    23615616.410    95090306.587        -458.715          49.625    23615617.894    92672760.295        -447.073          49.000    23615617.587    93881535.483        -452.890          52.313  
E11  26948188.903   141613596.387       -2875.476          29.313    26948194.350   108509095.145       -2203.515          34.125    26948197.179   105750392.034       -2147.581          35.063    26948196.475   107129745.636       -2175.577          37.625  
E15  27599615.234   145036954.624        3198.609          38.000    27599620.656   111132235.999        2450.999          40.375    27599622.867   108306845.883        2388.634          40.813    27599622.284   109719542.983        2419.823          43.563  
E21  28616376.266   150380086.479          98.468          34.188    28616381.258   115226314.859          75.395          37.500    28616383.771   112296841.117          73.606          39.000    28616382.758   113761580.532          74.485          41.313  
E34  23889448.693   125539911.857        1349.290          47.250    23889450.095    96192931.813        1033.853          48.688    23889451.418    93747354.947        1007.592          48.563    23889451.237    94970146.423        1020.718          51.688  
E36  24101390.776   126653649.264       -1582.667          46.625    24101393.167    97046304.163       -1212.621          49.125    24101394.677    94579029.496       -1181.829          48.375    24101394.419    95812668.371       -1197.223          51.813  
> 2023 09 10 11 30 04.0000000  0  9                     
E03                                                                  28602101.498   115168811.531        2504.913          32.313    28602105.037   112240802.585        2441.209          32.750                                                                  
E04  27081490.602   142314159.102       -2446.281          38.250    27081493.997   109045909.403       -1874.309          42.875    27081495.564   106273560.357       -1826.695          42.625    27081495.362   107659735.925       -1850.490          45.813  
E05  24307363.510   127736098.735        2215.597          45.938    24307365.733    97875734.431        1697.660          48.250    24307367.238    95387377.192        1654.500          48.250    24307366.981    96631557.856        1676.079          51.250  
E09  23615729.789   124101496.880        -598.540          47.438    23615730.319    95090765.209        -458.660          49.625    23615731.805    92673207.256        -447.061          49.125    23615731.497    93881988.275        -452.854          52.375  
E11  26948736.204   141616471.950       -2875.603          29.875    26948741.661   108511298.463       -2203.238          34.188    26948744.303   105752539.314       -2147.251          35.125    26948743.672   107131920.930       -2175.221          37.688  
E15  27599006.252   145033755.632        3198.958          38.125    27599011.892   111129784.829        2451.259          40.250    27599014.202   108304457.031        2388.860          40.938    27599013.536   109717122.972        2420.065          43.625  
E21  28616357.490   150379987.772          98.808          34.000    28616362.571   115226239.222          75.516          37.688    28616365.085   112296767.402          73.677          39.188    28616363.990   113761505.855          74.612          41.438  
E34  23889191.956   125538562.423        1349.339          47.313    23889193.312    96191897.834        1033.872          48.625    23889194.635    93746347.254        1007.608          48.688    23889194.454    94969125.586        1020.727          51.688  
E36  24101691.894   126655231.711       -1582.560          46.563    24101694.290    97047516.693       -1212.616          49.188    24101695.789    94580211.197       -1181.734          48.438    24101695.539    95813865.488       -1197.185          51.875  
> 2023 09 10 11 30 05.0000000  0  9                     
E03                                                                  28601479.514   115166306.709        2504.544          32.375    28601482.917   112238361.430        2441.130          33.125                                                                  
E04  27081956.205   142316605.629       -2446.737          38.313    27081959.644   109047784.007       -1874.798          42.875    27081961.061   106275387.315       -1827.168          42.688    27081960.916   107661586.706       -1850.993          45.813  
E05  24306942.001   127733883.649        2214.879          46.000    24306944.216    97874037.158        1697.144          48.188    24306945.713    95385723.073        1653.956          48.313    24306945.459    96629882.158        1675.547          51.250  
E09  23615843.736   124102096.001        -599.360          47.375    23615844.307    95091224.271        -459.241          49.500    23615845.831    92673654.646        -447.584          49.125    23615845.501    93882441.501        -453.411          52.375  
E11  26949283.304   141619347.826       -2876.139          29.563    26949289.048   108513502.031       -2203.635          34.000    26949291.616   105754686.859       -2147.660          35.500    26949290.980   107134096.487       -2175.638          37.750  
E15  27598397.666   145030556.982        3198.351          37.938    27598403.175   111127333.908        2450.851          40.125    27598405.547   108302068.419        2388.466          40.938    27598404.836   109714703.205        2419.647          43.563  
E21  28616338.801   150379889.765          97.878          34.188    28616343.929   115226164.154          74.755          37.625    28616346.447   112296694.225          73.004          39.000    28616345.335   113761431.732          73.888          41.313  
E34  23888935.333   125537213.622        1348.517          47.313    23888936.633    96190864.336        1033.281          48.625    23888937.975    93745340.033        1007.038          48.750    23888937.797    94968105.225        1020.164          51.688  
E36  24101993.117   126656814.765       -1583.261          46.563    24101995.541    97048729.677       -1213.215          49.063    24101997.037    94581393.343       -1182.365          48.500    24101996.778    95815063.054       -1197.795          51.813  
> 2023 09 10 11 30 06.0000000  0  9                     
E03                                                                  28600857.517   115163802.385        2504.175          32.188    28600860.962   112235920.773        2440.999          32.938                                                                  
E04  27082422.043   142319052.884       -2447.377          38.313    27082425.318   109049659.181       -1875.272          42.875    27082426.736   106277214.804       -1827.599          42.625    27082426.622   107663438.037       -1851.439          45.813  
E05  24306520.691   127731669.505        2213.896          46.000    24306522.863    97872340.612        1696.358          48.188    24306524.402    95384069.654        1653.250          48.313    24306524.120    96628207.177        1674.806          51.250  
E09  23615958.000   124102696.106        -600.422          47.438    23615958.480    95091684.096        -460.070          49.563    23615960.060    92674102.777        -448.300          49.125    23615959.697    93882895.478        -454.188          52.375  
E11  26949830.460   141622224.346       -2876.814          29.250    26949836.566   108515706.123       -2204.028          34.250    26949839.039   105756834.916       -2148.185          35.063    26949838.419   107136272.566       -2176.132          37.750  
E15  27597789.181   145027359.059        3197.784          37.750    27597794.567   111124883.545        2450.349          40.188    27597796.991   108299680.355        2388.125          40.875    27597796.270   109712283.993        2419.250          43.500  
E21  28616320.449   150379792.898          96.719          34.313    28616325.439   115226089.909          74.027          37.438    28616328.080   112296621.904          72.146          38.875    28616326.898   113761358.451          73.083          41.188  
E34  23888678.873   125535865.847        1347.494          47.250    23888680.166    96189831.631        1032.496          48.688    23888681.506    93744333.582        1006.257          48.625    23888681.336    94967085.647        1019.381          51.750  
E36  24102294.571   126658398.826       -1584.322          46.625    24102297.003    97049943.436       -1213.918          49.063    24102298.496    94582576.240       -1183.097          48.500    24102298.215    95816261.382       -1198.507          51.875  
> 2023 09 10 11 30 07.0000000  0  9                     
E03                                                                  28600235.704   115161298.640        2503.319          32.188    28600239.242   112233480.716        2439.826          32.938                                                                  
E04  27082887.756   142321500.923       -2448.444          38.313    27082891.162   109051534.950       -1876.098          42.813    27082892.604   106279042.875       -1828.354          42.438    27082892.467   107665289.957       -1852.226          45.688  
E05  24306099.561   127729456.347        2212.743          46.000    24306101.699    97870644.818        1695.428          48.188    24306103.263    95382416.979        1652.291          48.188    24306102.982    96626532.942        1673.861          51.125  
E09  23616072.361   124103297.246        -601.684          47.438    23616072.863    95092144.705        -460.999          49.500    23616074.463    92674551.681        -449.301          49.000    23616074.086    93883350.234        -455.145          52.313  
E11  26950377.717   141625101.646       -2877.776          29.375    26950384.105   108517910.829       -2205.148          33.875    26950386.546   105758983.549       -2149.002          35.375    26950385.964   107138449.227       -2177.047          37.625  
E15  27597180.899   145024161.903        3196.740          37.938    27597186.130   111122433.797        2449.485          40.375    27597188.589   108297292.884        2387.187          40.813    27597187.879   109709865.384        2418.333          43.625  
E21  28616302.144   150379697.211          95.013          34.063    28616307.271   115226016.572          73.037          37.563    28616309.855   112296550.429          71.090          38.938    28616308.685   113761286.046          72.050          41.250  
E34  23888422.593   125534519.164        1346.164          47.375    23888423.874    96188799.754        1031.484          48.625    23888425.273    93743327.935        1005.321          48.563    23888425.072    94966066.886        1018.404          51.625  
E36  24102596.159   126659983.938       -1585.602          46.688    24102598.634    97051158.003       -1214.995          49.063    24102600.141    94583759.933       -1184.084          48.313    24102599.844    95817460.512       -1199.545          51.688  
> 2023 09 10 11 30 08.0000000  0  9                     
E03                                                                  28599613.949   115158794.859        2504.295          32.063    28599617.249   112231040.558        2440.419          32.563                                                                  
E04  27083353.521   142323948.929       -2447.508          38.313    27083356.994   109053410.687       -1875.482          42.938    27083358.384   106280870.935       -1827.762          42.375    27083358.303   107667141.857       -1851.633          45.750  
E05  24305678.479   127727243.389        2213.203          46.000    24305680.590    97868949.171        1695.908          48.188    24305682.153    95380764.437        1652.767          48.125    24305681.863    96624858.849        1674.332          51.125  
E09  23616186.795   124103898.618        -601.122          47.438    23616187.329    95092605.497        -460.552          49.500    23616188.896    92675000.758        -448.895          48.938    23616188.524    93883805.170        -454.725          52.250  
E11  26950925.719   141627978.928       -2877.048          29.563    26950931.662   108520115.464       -2204.219          34.188    26950934.074   105761132.148       -2148.296          35.188    26950933.506   107140625.851       -2176.273          37.688  
E15  27596572.575   145020964.730        3197.641          38.000    27596577.828   111119984.028        2450.127          40.375    27596580.138   108294905.397        2387.774          40.813    27596579.493   109707446.756        2418.962          43.625  
E21  28616284.017   150379601.866          95.503          34.063    28616289.076   115225943.541          73.123          37.563    28616291.691   112296479.245          71.287          38.938    28616290.557   113761213.939          72.189          41.250  
E34  23888166.409   125533172.760        1346.659          47.375    23888167.683    96187768.097        1031.853          48.625    23888169.065    93742322.511        1005.643          48.500    23888168.861    94965048.344        1018.747          51.563  
E36  24102897.823   126661569.305       -1585.094          46.688    24102900.374    97052372.762       -1214.552          49.063    24102901.821    94584943.809       -1183.672          48.250    24102901.531    95818659.828       -1199.113          51.688  
> 2023 09 10 11 30 09.0000000  0  9                     
E03                                                                  28598991.802   115156290.715        2503.352          32.000    28598995.417   112228600.073        2439.855          32.688                                                                  
E04  27083819.217   142326396.546       -2448.575          38.188    27083822.810   109055286.126       -1876.138          42.938    27083824.154   106282698.690       -1828.414          42.438    27083824.063   107668993.453       -1852.276          45.688  
E05  24305257.334   127725030.232        2212.053          46.063    24305259.446    97867253.383        1694.945          48.125    24305261.011    95379111.761        1651.874          48.188    24305260.712    96623184.616        1673.409          51.125  
E09  23616301.188   124104499.845        -602.289          47.625    23616301.747    95093066.181        -461.530          49.500    23616303.298    92675449.729        -449.746          48.938    23616302.939    93884259.997        -455.644          52.250  
E11  26951473.778   141630855.746       -2877.329          29.250    26951479.065   108522319.812       -2205.189          34.125    26951481.501   105763280.450       -2149.191          35.188    26951480.962   107142802.171       -2177.168          37.688  
E15  27595964.108   145017767.171        3196.719          38.375    27595969.352   111117533.941        2449.309          40.188    27595971.708   108292517.593        2387.200          41.000    27595971.012   109705027.811        2418.252          43.688  
E21  28616266.063   150379506.521          94.262          34.125    28616270.847   115225870.480          71.989          37.625    28616273.630   112296408.040          70.323          39.000    28616272.393   113761141.806          71.178          41.313  
E34  23887910.163   125531826.266        1345.359          47.625    23887911.428    96186736.364        1030.902          48.563    23887912.860    93741317.008        1004.713          48.438    23887912.633    94964029.728        1017.802          51.563  
E36  24103199.430   126663154.546       -1586.301          46.688    24103202.039    97053587.430       -1215.488          49.063    24103203.478    94586127.590       -1184.590          48.313    24103203.191    95819859.054       -1200.042          51.688  
> 2023 09 10 11 30 10.0000000  0  9                     
E03                                                                  28598369.890   115153786.667        2504.031          31.750    28598373.590   112226159.701        2440.146          32.563                                                                  
E04  27084284.982   142328844.299       -2447.919          38.375    27084288.628   109057161.675       -1875.678          42.938    27084289.965   106284526.572       -1828.154          42.500    27084289.844   107670845.169       -1851.921          45.813  
E05  24304836.239   127722817.462        2212.456          46.125    24304838.383    97865557.880        1695.300          48.125    24304839.941    95377459.370        1652.207          48.313    24304839.637    96621510.668        1673.755          51.188  
E09  23616415.655   124105101.509        -602.000          47.625    23616416.232    95093527.191        -461.243          49.563    23616417.798    92675899.023        -449.554          48.938    23616417.431    93884715.149        -455.394          52.313  
E11  26952020.971   141633732.792       -2876.967          29.625    26952026.479   108524524.256       -2204.689          34.375    26952029.063   105765428.835       -2148.250          34.938    26952028.445   107144978.590       -2176.449          37.625  
E15  27595355.644   145014569.772        3197.139          38.188    27595360.913   111115083.990        2449.787          40.313    27595363.180   108290129.950        2387.413          40.875    27595362.563   109702609.013        2418.594          43.625  
E21  28616247.795   150379411.722          94.342          34.313    28616252.741   115225797.841          72.421          37.625    28616255.474   112296337.253          70.614          39.063    28616254.346   113761070.094          71.498          41.375  
E34  23887654.011   125530480.239        1345.743          47.563    23887655.313    96185704.999        1031.109          48.688    23887656.729    93740311.863        1004.952          48.500    23887656.489    94963011.473        1018.032          51.625  
E36  24103501.256   126664740.241       -1586.073          46.813    24103503.779    97054802.435       -1215.228          49.063    24103505.233    94587311.709       -1184.363          48.313    24103504.940    95821058.616       -1199.798          51.750  
> 2023 09 10 11 30 11.0000000  0  9                     
E03                                                                  28597747.842   115151282.519        2504.683          32.188    28597751.693   112223719.235        2440.803          32.563                                                                  
E04  27084750.774   142331291.978       -2446.902          38.313    27084754.448   109059037.156       -1874.928          42.938    27084755.765   106286354.356       -1827.269          42.313    27084755.604   107672696.800       -1851.100          45.688  
E05  24304415.216   127720604.788        2213.306          46.000    24304417.361    97863862.467        1695.848          48.188    24304418.888    95375807.057        1652.725          48.188    24304418.571    96619836.806        1674.290          51.188  
E09  23616530.184   124105703.319        -601.235          47.563    23616530.739    95093988.317        -460.707          49.563    23616532.315    92676348.423        -448.989          48.813    23616531.944    93885170.412        -454.844          52.250  
E11  26952568.126   141636609.685       -2876.338          29.375    26952574.020   108526728.624       -2203.857          34.063    26952576.648   105767577.176       -2147.799          34.938    26952575.906   107147154.943       -2175.823          37.500  
E15  27594747.168   145011372.286        3198.184          38.250    27594752.410   111112633.957        2450.506          40.375    27594754.790   108287742.201        2388.193          40.875    27594754.087   109700190.123        2419.356          43.625  
E21  28616229.673   150379317.215          94.956          34.250    28616234.755   115225725.424          72.759          37.625    28616237.490   112296266.670          70.967          39.000    28616236.383   113760998.590          71.861          41.375  
E34  23887397.936   125529134.423        1346.388          47.438    23887399.221    96184673.787        1031.591          48.625    23887400.608    93739306.875        1005.389          48.375    23887400.386    94961993.372        1018.489          51.500  
E36  24103803.083   126666326.094       -1585.275          46.625    24103805.522    97056017.570       -1214.732          49.125    24103807.027    94588495.952       -1183.846          48.250    24103806.717    95822258.305       -1199.284          51.688  
> 2023 09 10 11 30 12.0000000  0  9                     
E03                                                                  28597125.811   115148778.210        2504.206          31.813    28597129.792   112221278.592        2440.285          32.688                                                                  
E04  27085216.649   142333739.465       -2447.683          38.250    27085220.238   109060912.509       -1875.603          43.125    27085221.564   106288182.024       -1827.779          42.438    27085221.341   107674548.312       -1851.699          45.750  
E05  24303994.210   127718392.191        2212.190          46.063    24303996.332    97862167.094        1695.118          48.250    24303997.864    95374154.788        1652.000          48.250    24303997.528    96618162.985        1673.558          51.188  
E09  23616644.733   124106305.227        -602.268          47.625    23616645.255    95094449.523        -461.458          49.625    23616646.866    92676797.903        -449.786          48.813    23616646.476    93885625.755        -455.614          52.250  
E11  26953115.244   141639486.445       -2876.476          30.000    26953121.512   108528932.880       -2204.269          34.250    26953123.983   105769725.390       -2148.406          34.813    26953123.376   107149331.180       -2176.349          37.563  
E15  27594138.750   145008174.621        3197.528          38.125    27594143.907   111110183.824        2449.959          40.563    27594146.352   108285354.353        2387.618          41.000    27594145.593   109697771.131        2418.799          43.813  
E21  28616212.032   150379222.931          93.667          34.000    28616216.927   115225653.186          71.799          37.750    28616219.535   112296196.264          70.185          38.938    28616218.461   113760927.268          71.017          41.438  
E34  23887141.914   125527788.746        1345.399          47.500    23887143.137    96183642.686        1030.870          48.625    23887144.540    93738301.991        1004.557          48.438    23887144.305    94960975.380        1017.719          51.563  
E36  24104104.891   126667912.079       -1586.339          46.750    24104107.310    97057232.803       -1215.512          49.188    24104108.853    94589680.285       -1184.566          48.250    24104108.520    95823458.089       -1200.045          51.750  
> 2023 09 10 11 30 13.0000000  0  9                     
E03                                                                  28596504.121   115146273.807        2504.647          31.938    28596507.927   112218837.859        2440.735          32.375                                                                  
E04  27085682.196   142336186.893       -2447.244          38.188    27085685.976   109062787.813       -1875.271          43.250    27085687.289   106290009.649       -1827.618          42.438    27085687.070   107676399.777       -1851.446          45.938  
E05  24303573.151   127716179.717        2212.507          46.125    24303575.291    97860471.830        1695.214          48.188    24303576.850    95372502.622        1652.136          48.188    24303576.498    96616489.268        1673.671          51.125  
E09  23616759.358   124106907.328        -602.160          47.688    23616759.801    95094910.878        -461.452          49.625    23616761.430    92677247.524        -449.675          48.750    23616761.048    93886081.244        -455.564          52.188  
E11  26953662.794   141642363.129       -2876.852          29.563    26953669.088   108531137.066       -2204.017          34.000    26953671.379   105771873.537       -2148.237          35.000    26953670.783   107151507.347       -2176.142          37.500  
E15  27593530.219   145004976.922        3197.783          38.188    27593535.375   111107733.627        2450.336          40.500    27593537.896   108282966.454        2387.983          40.938    27593537.081   109695352.083        2419.162          43.750  
E21  28616194.037   150379128.952          93.842          33.813    28616199.046   115225581.175          71.998          38.000    28616201.599   112296126.098          70.154          38.750    28616200.597   113760856.180          71.083          41.375  
E34  23886885.829   125526443.322        1345.292          47.625    23886887.133    96182611.776        1030.829          48.625    23886888.526    93737297.286        1004.590          48.438    23886888.282    94959957.572        1017.712          51.563  
E36  24104406.763   126669498.264       -1586.168          46.750    24104409.156    97058448.193       -1215.397          49.188    24104410.701    94590864.778       -1184.601          48.188    24104410.359    95824658.030       -1199.990          51.750  
> 2023 09 10 11 30 14.0000000  0  9                     
E03                                                                  28595882.446   115143769.645        2504.316          31.625    28595886.099   112216397.372        2440.281          32.375                                                                  
E04  27086148.022   142338634.650       -2447.691          38.313    27086151.817   109064663.354       -1875.609          43.188    27086153.075   106291837.517       -1827.907          42.375    27086152.870   107678251.482       -1851.760          45.875  
E05  24303152.269   127713967.801        2211.792          46.125    24303154.330    97858776.983        1694.745          48.188    24303155.935    95370850.874        1651.591          48.250    24303155.593    96614815.972        1673.168          51.188  
E09  23616874.017   124107510.027        -602.904          47.563    23616874.474    95095372.677        -461.946          49.563    23616876.108    92677697.589        -450.262          48.688    23616875.736    93886537.175        -456.097          52.188  
E11  26954210.113   141645240.073       -2876.914          29.688    26954216.590   108533341.509       -2204.728          34.125    26954218.807   105774021.913       -2148.246          34.625    26954218.270   107153683.751       -2176.480          37.375  
E15  27592921.784   145001779.547        3197.269          38.188    27592926.909   111105283.690        2449.988          40.438    27592929.338   108280578.795        2387.750          41.000    27592928.623   109692933.286        2418.859          43.750  
E21  28616176.615   150379035.716          93.163          34.063    28616181.368   115225509.743          71.203          38.063    28616183.726   112296056.482          69.385          39.000    28616182.845   113760785.657          70.277          41.563  
E34  23886629.903   125525098.531        1344.588          47.563    23886631.240    96181581.348        1030.298          48.688    23886632.618    93736293.055        1004.112          48.375    23886632.367    94958940.243        1017.213          51.563  
E36  24104708.736   126671085.070       -1587.025          46.875    24104711.117    97059664.055       -1216.014          49.188    24104712.636    94592049.728       -1185.136          48.313    24104712.314    95825858.436       -1200.573          51.750  
> 2023 09 10 11 30 15.0000000  0  9                     
E03                                                                  28595260.361   115141265.525        2503.808          31.563    28595264.304   112213956.860        2440.281          32.563                                                                  
E04  27086613.902   142341082.459       -2447.846          38.250    27086617.649   109066538.943       -1875.590          43.063    27086618.927   106293665.412       -1827.883          42.313    27086618.666   107680103.223       -1851.730          45.750  
E05  24302731.407   127711756.151        2211.359          46.125    24302733.415    97857082.351        1694.398          48.125    24302735.060    95369199.317        1651.400          48.313    24302734.719    96613142.877        1672.891          51.188  
E09  23616988.693   124108113.028        -603.273          47.688    23616989.217    95095834.718        -462.289          49.563    23616990.859    92678147.881        -450.514          48.813    23616990.478    93886993.342        -456.404          52.188  
E11  26954757.731   141648117.094       -2876.864          29.500    26954764.149   108535545.946       -2204.441          34.000    26954766.225   105776170.304       -2148.297          34.688    26954765.758   107155860.169       -2176.388          37.375  
E15  27592313.455   144998582.237        3197.122          38.438    27592318.506   111102833.800        2449.734          40.500    27592320.941   108278191.198        2387.500          41.000    27592320.183   109690514.541        2418.627          43.813  
E21  28616158.873   150378942.933          92.425          33.750    28616163.825   115225438.640          71.109          38.000    28616166.038   112295987.184          69.067          38.938    28616165.164   113760715.456          70.079          41.500  
E34  23886374.038   125523754.095        1344.102          47.500    23886375.373    96180551.203        1029.894          48.688    23886376.789    93735289.100        1003.701          48.438    23886376.532    94957923.193        1016.798          51.563  
E36  24105010.771   126672672.202       -1587.426          46.813    24105013.164    97060880.166       -1216.319          49.125    24105014.648    94593234.920       -1185.382          48.313    24105014.332    95827059.088       -1200.850          51.750  
> 2023 09 10 11 30 16.0000000  0  9                     
E03                                                                  28594638.228   115138760.923        2504.576          31.688    28594642.247   112211515.951        2441.125          32.563                                                                  
E04  27087079.675   142343529.748       -2447.183          38.250    27087083.327   109068414.135       -1875.077          43.063    27087084.694   106295492.941       -1827.430          42.500    27087084.376   107681954.585       -1851.252          45.813  
E05  24302310.476   127709544.202        2211.986          46.125    24302312.503    97855387.484        1694.891          48.188    24302314.114    95367547.538        1651.873          48.375    24302313.801    96611469.555        1673.383          51.250  
E09  23617103.372   124108715.775        -602.703          47.563    23617103.933    95096296.569        -461.827          49.500    23617105.521    92678597.986        -450.082          48.813    23617105.184    93887449.320        -455.957          52.188  
E11  26955305.412   141650993.596       -2876.083          28.938    26955311.360   108537750.029       -2204.019          34.313    26955313.579   105778318.324       -2147.594          34.688    26955313.138   107158036.221       -2175.854          37.500  
E15  27591705.041   144995384.404        3197.939          38.313    27591710.085   111100383.523        2450.335          40.438    27591712.379   108275803.211        2388.243          41.125    27591711.675   109688095.410        2419.267          43.813  
E21  28616141.077   150378849.989          93.069          34.125    28616146.068   115225367.440          71.335          37.813    28616148.385   112295917.795          69.314          38.875    28616147.483   113760645.161          70.299          41.375  
E34  23886118.257   125522409.456        1344.658          47.500    23886119.499    96179520.891        1030.305          48.688    23886120.902    93734284.980        1004.149          48.500    23886120.657    94956905.978        1017.223          51.625  
E36  24105312.702   126674259.098       -1586.931          46.813    24105315.131    97062096.095       -1215.911          49.125    24105316.613    94594419.934       -1185.006          48.313    24105316.301    95828259.561       -1200.470          51.750  
> 2023 09 10 11 30 17.0000000  0  9                     
E03                                                                  28594016.175   115136256.497        2503.766          31.563    28594020.212   112209075.189        2440.583          32.625                                                                  
E04  27087545.484   142345977.282       -2448.047          38.250    27087549.047   109070289.509       -1875.818          42.938    27087550.397   106297320.630       -1828.132          42.313    27087550.118   107683806.117       -1851.976          45.688  
E05  24301889.622   127707332.702        2210.833          46.250    24301891.658    97853692.948        1694.050          48.125    24301893.281    95365896.093        1650.993          48.375    24301892.954    96609796.564        1672.522          51.250  
E09  23617218.180   124109319.017        -603.975          47.688    23617218.702    95096758.788        -462.768          49.563    23617220.318    92679048.456        -451.006          48.750    23617219.979    93887905.664        -456.892          52.188  
E11  26955852.996   141653870.289       -2876.995          29.250    26955858.786   108539954.221       -2204.523          34.125    26955861.178   105780466.531       -2148.627          34.813    26955860.572   107160212.420       -2176.571          37.438  
E15  27591096.467   144992186.831        3196.866          38.500    27591101.606   111097933.433        2449.560          40.688    27591103.893   108273415.412        2387.390          41.188    27591103.204   109685676.464        2418.488          44.000  
E21  28616123.459   150378757.718          91.465          34.188    28616128.405   115225296.732          70.151          37.563    28616130.717   112295848.879          68.286          39.000    28616129.932   113760575.350          69.214          41.313  
E34  23885862.456   125521065.361        1343.401          47.625    23885863.721    96178491.000        1029.359          48.688    23885865.144    93733281.279        1003.169          48.500    23885864.893    94955889.181        1016.259          51.563  
E36  24105614.781   126675846.498       -1588.127          46.938    24105617.207    97063312.414       -1216.853          49.125    24105618.702    94595605.334       -1185.932          48.250    24105618.372    95829460.420       -1201.394          51.750  
> 2023 09 10 11 30 18.0000000  0  9                     
E03                                                                  28593394.233   115133752.647        2503.720          31.875    28593398.515   112206635.027        2439.868          32.625                                                                  
E04  27088011.423   142348425.622       -2448.471          38.063    27088014.914   109072165.506       -1876.147          43.000    27088016.317   106299148.923       -1828.255          42.313    27088016.003   107685658.261       -1852.201          45.688  
E05  24301469.025   127705122.231        2210.328          46.125    24301470.999    97851999.213        1693.579          48.188    24301472.614    95364245.421        1650.523          48.313    24301472.304    96608124.361        1672.050          51.188  
E09  23617333.178   124109923.331        -604.513          47.500    23617333.724    95097221.833        -463.166          49.563    23617335.316    92679499.730        -451.430          48.688    23617334.972    93888362.823        -457.293          52.188  
E11  26956400.526   141656747.812       -2877.575          30.000    26956406.371   108542159.067       -2204.845          34.313    26956408.830   105782615.305       -2148.789          34.625    26956408.149   107162389.230       -2176.820          37.438  
E15  27590488.175   144988990.051        3196.723          38.375    27590493.282   111095483.948        2449.496          40.563    27590495.562   108271028.215        2387.173          41.063    27590494.893   109683258.124        2418.348          43.875  
E21  28616106.220   150378666.604          91.169          34.625    28616111.084   115225226.926          69.774          37.563    28616113.429   112295780.857          67.890          38.750    28616112.609   113760506.437          68.831          41.188  
E34  23885606.860   125519722.385        1342.764          47.563    23885608.156    96177461.964        1028.890          48.688    23885609.583    93732278.405        1002.682          48.438    23885609.323    94954873.226        1015.785          51.625  
E36  24105917.086   126677434.995       -1588.696          46.875    24105919.474    97064529.573       -1217.293          49.125    24105920.953    94596791.545       -1186.362          48.250    24105920.654    95830662.104       -1201.834          51.750  
> 2023 09 10 11 30 19.0000000  0  9                     
E03                                                                  28592772.524   115131249.064        2503.326          31.750    28592776.618   112204195.064        2439.966          32.625                                                                  
E04  27088477.380   142350874.309       -2448.583          38.250    27088480.843   109074041.774       -1876.336          43.125    27088482.279   106300977.508       -1828.597          42.250    27088481.969   107687510.688       -1852.466          45.688  
E05  24301048.543   127702912.331        2209.760          46.188    24301050.431    97850305.926        1693.127          48.188    24301052.058    95362595.182        1650.073          48.375    24301051.762    96606452.597        1671.598          51.250  
E09  23617448.277   124110528.276        -605.130          47.563    23617448.849    95097685.364        -463.718          49.625    23617450.440    92679951.476        -451.893          48.813    23617450.085    93888820.461        -457.807          52.250  
E11  26956948.252   141659625.672       -2877.531          29.188    26956954.145   108544364.202       -2205.154          34.188    26956956.537   105784764.383       -2149.188          34.313    26956955.789   107164566.334       -2177.175          37.250  
E15  27589879.930   144985793.663        3196.201          38.313    27589885.001   111093034.771        2449.090          40.563    27589887.273   108268641.297        2386.938          41.125    27589886.645   109680840.077        2418.004          43.938  
E21  28616089.013   150378576.301          90.202          34.375    28616093.960   115225157.723          69.015          37.938    28616096.353   112295713.406          67.354          39.000    28616095.416   113760438.109          68.183          41.563  
E34  23885351.359   125518380.082        1342.146          47.563    23885352.720    96176433.454        1028.367          48.750    23885354.158    93731276.043        1002.187          48.438    23885353.894    94953857.791        1015.272          51.563  
E36  24106219.515   126679024.144       -1589.360          46.938    24106221.889    97065747.229       -1217.791          49.250    24106223.360    94597978.247       -1186.809          48.313    24106223.061    95831864.283       -1202.302          51.813  
> 2023 09 10 11 30 20.0000000  0  9                     
E03                                                                  28592150.750   115128744.986        2504.413          31.813    28592154.650   112201754.678        2440.446          32.875                                                                  
E04  27088943.382   142353322.437       -2447.949          38.063    27088946.618   109075917.607       -1875.671          43.188    27088948.159   106302805.643       -1827.970          42.438    27088947.831   107689362.672       -1851.825          45.813  
E05  24300627.960   127700702.091        2210.356          46.188    24300629.856    97848612.363        1693.660          48.125    24300631.470    95360944.673        1650.584          48.375    24300631.161    96604780.562        1672.119          51.250  
E09  23617563.340   124111132.902        -604.516          47.625    23617563.947    95098148.652        -463.241          49.688    23617565.499    92680402.982        -451.415          48.750    23617565.140    93889277.859        -457.332          52.250  
E11  26957495.822   141662503.019       -2877.724          29.688    26957501.588   108546568.855       -2204.542          34.188    26957503.956   105786912.981       -2148.405          34.563    26957503.307   107166742.964       -2176.489          37.313  
E15  27589271.600   144982596.717        3196.992          38.250    27589276.549   111090585.150        2449.701          40.688    27589278.865   108266253.958        2387.536          41.250    27589278.276   109678421.599        2418.601          44.063  
E21  28616071.923   150378485.789          90.613          34.313    28616076.753   115225088.365          69.506          38.000    28616079.051   112295645.816          67.557          38.938    28616078.200   113760369.634          68.534          41.500  
E34  23885095.905   125517037.525        1342.583          47.563    23885097.317    96175404.740        1028.717          48.688    23885098.670    93730273.481        1002.558          48.438    23885098.417    94952842.152        1015.636          51.563  
E36  24106521.871   126680612.993       -1588.796          47.000    24106524.252    97066964.663       -1217.383          49.250    24106525.701    94599164.728       -1186.497          48.375    24106525.409    95833066.240       -1201.934          51.813  
> 2023 09 10 11 30 21.0000000  0  9                     
E03                                                                  28591528.944   115126240.915        2503.394          31.875    28591532.750   112199314.262        2439.866          32.875                                                                  
E04  27089409.370   142355770.581       -2448.734          38.250    27089412.425   109077793.463       -1876.448          43.188    27089413.984   106304633.806       -1828.716          42.563    27089413.684   107691214.682       -1852.583          45.938  
E05  24300207.397   127698492.081        2209.137          46.250    24300209.308    97846918.974        1692.765          48.188    24300210.929    95359294.341        1649.646          48.375    24300210.595    96603108.700        1671.212          51.313  
E09  23617678.451   124111737.816        -605.792          47.688    23617679.028    95098612.150        -464.120          49.688    23617680.624    92680854.698        -452.318          48.813    23617680.248    93889735.465        -458.215          52.250  
E11  26958043.400   141665380.295       -2877.995          30.188    26958049.147   108548773.548       -2205.257          34.000    26958051.345   105789061.591       -2148.871          34.438    26958050.849   107168919.611       -2177.067          37.250  
E15  27588663.121   144979399.761        3196.188          38.250    27588668.155   111088135.554        2449.011          40.813    27588670.563   108263866.633        2386.727          41.500    27588669.908   109676003.136        2417.856          44.188  
E21  28616054.792   150378395.699          89.008          34.688    28616059.674   115225019.339          68.523          38.000    28616061.982   112295578.533          66.644          38.813    28616061.060   113760301.479          67.589          41.438  
E34  23884840.443   125515695.292        1341.331          47.688    23884841.898    96174376.272        1027.815          48.688    23884843.231    93729271.160        1001.626          48.500    23884842.993    94951826.758        1014.712          51.688  
E36  24106824.220   126682202.141       -1590.014          47.063    24106826.675    97068182.316       -1218.306          49.250    24106828.113    94600351.426       -1187.380          48.438    24106827.807    95834268.417       -1202.844          51.938  
> 2023 09 10 11 30 22.0000000  0  9                     
E03                                                                  28590907.265   115123737.231        2503.867          32.188    28590911.226   112196874.232        2440.225          33.000                                                                  
E04  27089875.293   142358219.294       -2448.391          38.250    27089878.363   109079669.735       -1876.165          43.313    27089879.927   106306462.375       -1828.356          42.500    27089879.659   107693067.101       -1852.256          46.000  
E05  24299786.963   127696282.851        2209.252          46.250    24299788.920    97845226.196        1692.801          48.188    24299790.510    95357644.595        1649.771          48.375    24299790.196    96601437.440        1671.289          51.250  
E09  23617793.775   124112343.550        -605.638          47.750    23617794.335    95099076.285        -464.085          49.813    23617795.907    92681307.035        -452.240          48.750    23617795.522    93890193.701        -458.162          52.313  
E11  26958591.023   141668258.179       -2877.816          29.563    26958596.818   108550978.664       -2205.092          34.375    26958599.274   105791210.649       -2148.954          34.563    26958598.502   107171096.701       -2177.031          37.438  
E15  27588054.847   144976203.412        3196.416          38.438    27588059.907   111085686.395        2449.180          40.875    27588062.361   108261479.745        2386.975          41.313    27588061.665   109673585.112        2418.102          44.188  
E21  28616037.961   150378306.549          89.167          34.313    28616042.601   115224951.037          68.279          37.938    28616044.973   112295511.971          66.523          38.813    28616044.122   113760234.048          67.426          41.438  
E34  23884585.163   125514353.933        1341.399          47.625    23884586.676    96173348.482        1027.832          48.813    23884587.979    93728269.498        1001.699          48.500    23884587.749    94950812.032        1014.761          51.688  
E36  24107126.835   126683792.132       -1589.901          47.063    24107129.240    97069400.626       -1218.264          49.313    24107130.673    94601538.759       -1187.318          48.438    24107130.366    95835471.238       -1202.791          51.938  
> 2023 09 10 11 30 23.0000000  0  9                     
E03                                                                  28590285.435   115121233.282        2504.073          32.313    28590289.331   112194433.936        2440.400          33.375                                                                  
E04  27090341.200   142360667.680       -2448.297          38.375    27090344.261   109081545.767       -1875.873          43.250    27090345.890   106308290.712       -1828.217          42.688    27090345.575   107694919.286       -1852.056          46.000  
E05  24299366.516   127694073.506        2209.459          46.313    24299368.483    97843533.323        1692.955          48.125    24299370.092    95355994.762        1649.850          48.563    24299369.774    96599766.086        1671.404          51.375  
E09  23617909.012   124112949.217        -605.622          47.750    23617909.557    95099540.370        -464.035          49.625    23617911.175    92681759.317        -452.265          48.750    23617910.773    93890651.885        -458.150          52.250  
E11  26959138.730   141671135.735       -2877.753          29.813    26959144.416   108553183.481       -2204.507          34.125    26959146.888   105793359.448       -2148.800          34.313    26959146.065   107173273.508       -2176.655          37.250  
E15  27587446.698   144973006.719        3196.844          38.500    27587451.592   111083236.990        2449.519          40.875    27587454.087   108259092.621        2387.190          41.438    27587453.340   109671166.849        2418.339          44.188  
E21  28616021.081   150378217.461          89.070          34.250    28616025.613   115224882.783          68.185          37.688    28616027.971   112295445.450          66.578          38.750    28616027.156   113760166.661          67.387          41.188  
E34  23884329.886   125513012.556        1341.301          47.625    23884331.420    96172320.672        1027.799          48.688    23884332.719    93727267.819        1001.680          48.563    23884332.495    94949797.288        1014.734          51.688  
E36  24107429.435   126685382.085       -1590.001          47.125    24107431.759    97070618.892       -1218.229          49.250    24107433.234    94602726.052       -1187.287          48.563    24107432.925    95836674.018       -1202.759          51.938  
> 2023 09 10 11 30 24.0000000  0  9                     
E03                                                                  28589663.488   115118729.226        2503.911          32.500    28589667.432   112191993.550        2439.976          33.875                                                                  
E04  27090806.985   142363115.967       -2448.566          38.563    27090810.142   109083421.728       -1876.244          43.188    27090811.829   106310118.972       -1828.380          42.688    27090811.456   107696771.396       -1852.313          46.000  
E05  24298946.115   127691864.293        2208.774          46.375    24298948.091    97841840.551        1692.405          48.188    24298949.668    95354345.027        1649.407          48.563    24298949.370    96598094.833        1670.903          51.313  
E09  23618024.310   124113555.063        -606.321          47.688    23618024.818    95100004.591        -464.591          49.688    23618026.452    92682211.737        -452.805          48.813    23618026.070    93891110.206        -458.700          52.250  
E11  26959686.304   141674013.070       -2877.810          30.000    26959691.939   108555388.260       -2205.028          34.063    26959694.355   105795508.159       -2149.023          34.438    26959693.620   107175450.249       -2176.984          37.188  
E15  27586838.326   144969809.937        3196.518          38.625    27586843.315   111080787.524        2449.232          40.813    27586845.862   108256705.433        2386.938          41.438    27586845.012   109668748.521        2418.080          44.125  
E21  28616004.155   150378128.691          88.249          34.438    28616008.803   115224814.751          67.684          38.063    28616011.055   112295379.163          65.834          38.813    28616010.258   113760099.501          66.758          41.438  
E34  23884074.705   125511671.408        1340.615          47.750    23884076.201    96171293.038        1027.256          48.813    23884077.510    93726266.310        1001.113          48.563    23884077.277    94948782.716        1014.188          51.688  
E36  24107732.068   126686972.226       -1590.633          47.188    24107734.371    97071837.311       -1218.754          49.250    24107735.833    94603913.495       -1187.827          48.500    24107735.520    95837876.948       -1203.289          51.938  
> 2023 09 10 11 30 25.0000000  0  9                     
E03                                                                  28589041.497   115116225.182        2504.301          33.063    28589045.633   112189553.135        2441.023          33.813                                                                  
