     3.03           OBSERVATION DATA    R: GLONASS          RINEX VERSION / TYPE
CONVBIN demo5 b34g                      20231126 132224 UTC PGM / RUN BY / DATE 
log: 20230910-MSM7.rtcm                                     COMMENT             
format: RTCM 3                                              COMMENT             
format: RTCM 3                                              COMMENT             
log: 20230910-MSM7.rtcm                                     COMMENT             
0000                                                        MARKER NAME         
                                                            MARKER NUMBER       
                                                            MARKER TYPE         
                                                            OBSERVER / AGENCY   
3614512             SEPT MOSAIC-X5      4.10.0.1            REC # / TYPE / VERS 
Unknown                                                     ANT # / TYPE        
  4030581.7173   316269.1857  4916722.7347                  APPROX POSITION XYZ 
        0.0000        0.0000        0.0000                  ANTENNA: DELTA H/E/N
R   12 C1C L1C D1C S1C C2C L2C D2C S2C C2P L2P D2P S2P      SYS / # / OBS TYPES 
  2023    09    10    11    30   01.0000000     GPS         TIME OF FIRST OBS   
  2023    09    10    11    55   18.0000000     GPS         TIME OF LAST OBS    
R L1C                                                       SYS / PHASE SHIFT   
R L2C                                                       SYS / PHASE SHIFT   
R L2P  0.00000                                              SYS / PHASE SHIFT   
 10 R05  1 R06 -4 R07  5 R08  6 R14 -7 R15  0 R16 -1 R21  4 GLONASS SLOT / FRQ #
    R22 -3 R23  3                                           GLONASS SLOT / FRQ #
 C1C    0.000 C1P    0.000 C2C    0.000 C2P    0.000        GLONASS COD/PHS/BIS 
                                                            END OF HEADER       
> 2023 09 10 11 30 01.0000000  0 10                     
R05  23877959.944   127641310.0951      -3538.656          40.375    23877972.729    99276575.6731      -2752.254          37.063    23877971.779    99276596.6821      -2752.067          38.063  
R06  19525378.850   104191166.7601      -1124.289          37.813                                                                                                                                  
R07  20162796.813   107933079.5931       2374.875          49.625    20162804.780    83947995.3831       1847.122          46.750    20162805.055    83948003.3891       1847.075          46.813  
R08  23999330.279   128515341.3031       3985.176          38.063    23999344.505    99956443.3221       3099.612          35.750    23999343.852    99956447.3351       3099.538          36.750  
R14  24059196.999   128249060.6251      -2201.611          39.125    24059208.828    99749311.0831      -1712.434          41.250    24059208.974    99749313.0751      -1712.152          40.688  
R15  22611705.952   120830170.5231        926.200          42.938    22611716.556    93979099.2201        720.482          42.875    22611716.434    93979094.2251        720.313          42.813  
R16  23379471.538   124888993.1901       3790.422          40.063    23379486.424    97135971.4261       2948.049          40.563    23379486.023    97135965.4331       2947.903          40.688  
R21  20623868.603   110362458.0361      -3139.231          47.625    20623878.004    85837489.1241      -2441.611          46.000    20623878.149    85837493.1281      -2441.781          46.063  
R22  19592991.164   104588727.3781        780.185          50.563    19592997.577    81346814.6841        606.846          47.625    19592997.683    81346822.6951        606.720          48.375  
R23  22780818.801   121862031.2271       4288.832          39.938                                                                                                                                  
> 2023 09 10 11 30 02.0000000  0 10                     
R05  23878621.536   127644847.952       -3537.323          40.313    23878634.329    99279327.333       -2751.160          37.250    23878633.459    99279348.363       -2751.450          37.938  
R06  19525589.840   104192290.548       -1123.541          37.625                                                                                                                                  
R07  20162353.034   107930704.111        2375.735          49.563    20162361.047    83946147.792        1847.782          46.750    20162361.251    83946155.800        1847.613          46.688  
R08  23998586.177   128511355.331        3986.413          38.125    23998600.223    99953343.142        3100.388          35.625    23998599.560    99953347.122        3100.197          36.625  
R14  24059610.154   128251261.707       -2200.936          39.875    24059621.634    99751023.023       -1711.812          41.375    24059622.129    99751025.030       -1711.852          41.125  
R15  22611532.555   120829243.908         926.743          43.125    22611543.015    93978378.529         720.707          42.750    22611543.069    93978373.538         720.574          42.875  
R16  23378762.278   124885202.097        3791.432          40.125    23378776.674    97133022.809        2948.834          40.438    23378776.345    97133016.812        2948.752          40.438  
R21  20624455.224   110365596.742       -3138.489          47.625    20624464.428    85839930.330       -2441.043          45.938    20624464.737    85839934.340       -2441.245          46.000  
R22  19592844.986   104587946.845         780.547          50.563    19592851.530    81346207.608         607.108          47.688    19592851.546    81346215.614         606.978          48.313  
R23  22780017.117   121857741.814        4289.682          39.875                                                                                                                                  
> 2023 09 10 11 30 03.0000000  0 10                     
R05  23879283.315   127648385.685       -3537.597          40.625    23879295.644    99282078.925       -2751.374          37.438    23879295.290    99282099.912       -2751.386          37.688  
R06  19525800.714   104193414.719       -1124.250          37.750                                                                                                                                  
R07  20161909.344   107928329.013        2375.003          49.313    20161917.532    83944300.497        1847.218          46.750    20161917.518    83944308.497        1847.216          46.688  
R08  23997841.867   128507369.385        3985.940          38.313    23997855.528    99950242.924        3100.118          35.375    23997855.196    99950246.941        3100.295          36.625  
R14  24060022.977   128253463.290       -2201.809          40.438    24060034.955    99752735.371       -1712.447          41.438    24060035.253    99752737.374       -1712.522          40.750  
R15  22611358.986   120828318.048         925.544          43.313    22611369.872    93977658.421         719.873          42.688    22611369.937    93977653.414         719.910          42.875  
R16  23378052.530   124881411.290        3790.810          40.125    23378067.168    97130074.415        2948.310          40.438    23378066.725    97130068.404        2948.405          40.688  
R21  20625041.870   110368735.927       -3139.309          47.688    20625050.969    85842371.917       -2441.717          46.125    20625051.423    85842375.910       -2441.686          45.938  
R22  19592698.952   104587167.099         779.409          50.563    19592705.404    81345601.161         606.100          47.875    19592705.525    81345609.167         606.062          48.313  
R23  22779215.167   121853452.644        4289.144          39.813                                                                                                                                  
> 2023 09 10 11 30 04.0000000  0 10                     
R05  23879944.971   127651922.907       -3536.989          40.438    23879957.271    99284830.099       -2751.110          37.375    23879957.059    99284851.104       -2751.113          37.875  
R06  19526011.430   104194538.920       -1124.458          37.813                                                                                                                                  
R07  20161465.648   107925953.900        2374.961          49.188    20161473.811    83942453.192        1847.201          46.688    20161473.763    83942461.194        1847.162          46.625  
R08  23997096.782   128503383.057        3986.353          38.125    23997111.016    99947142.478        3100.543          35.375    23997110.782    99947146.472        3100.499          36.625  
R14  24060435.785   128255665.002       -2201.864          40.875    24060448.025    99754447.837       -1712.573          41.500    24060448.387    99754449.820       -1712.513          41.125  
R15  22611185.767   120827392.535         925.128          43.125    22611196.487    93976938.590         719.562          42.688    22611196.720    93976933.571         719.590          42.875  
R16  23377342.905   124877620.347        3790.897          40.250    23377357.604    97127125.902        2948.494          40.313    23377356.949    97127119.892        2948.470          40.313  
R21  20625628.556   110371875.226       -3139.484          47.500    20625637.802    85844813.593       -2441.903          46.125    20625638.050    85844817.588       -2441.878          45.750  
R22  19592553.021   104586387.794         779.004          50.563    19592559.544    81344995.035         605.919          47.938    19592559.540    81345003.035         605.845          48.313  
R23  22778413.190   121849163.347        4289.163          39.750                                                                                                                                  
> 2023 09 10 11 30 05.0000000  0 10                     
R05  23880606.642   127655460.365       -3537.523          40.313    23880619.006    99287581.458       -2751.267          37.625    23880618.832    99287602.457       -2751.411          38.125  
R06  19526222.169   104195663.834       -1125.204          37.688                                                                                                                                  
R07  20161022.144   107923579.502        2374.104          49.000    20161030.291    83940606.446        1846.473          46.625    20161030.192    83940614.444        1846.558          46.625  
R08  23996352.260   128499397.156        3985.819          38.000    23996366.557    99944042.327        3100.032          35.125    23996366.248    99944046.340        3100.292          36.563  
R14  24060849.110   128257867.576       -2202.961          41.000    24060860.932    99756160.934       -1713.353          41.563    24060861.703    99756162.933       -1713.413          41.000  
R15  22611012.573   120826468.115         923.939          43.125    22611023.276    93976219.587         718.514          42.625    22611023.780    93976214.586         718.581          43.000  
R16  23376633.577   124873830.003        3790.148          40.438    23376647.488    97124177.869        2947.859          40.250    23376647.263    97124171.851        2947.949          40.313  
R21  20626215.289   110375015.399       -3140.593          47.563    20626224.486    85847255.942       -2442.648          46.063    20626224.866    85847259.939       -2442.601          45.688  
R22  19592407.241   104585609.620         777.695          50.438    19592413.787    81344389.787         604.859          47.875    19592413.783    81344397.786         604.926          48.125  
R23  22777611.666   121844874.637        4288.431          39.688                                                                                                                                  
> 2023 09 10 11 30 06.0000000  0 10                     
R05  23881268.862   127658998.435       -3538.165          40.500    23881281.443    99290333.295       -2751.979          37.375    23881280.932    99290354.279       -2751.708          37.813  
R06  19526433.449   104196789.895       -1126.228          37.938                                                                                                                                  
R07  20160578.788   107921206.219        2372.981          48.875    20160587.019    83938760.552        1845.684          46.625    20160586.884    83938768.553        1845.658          46.750  
R08  23995607.962   128495412.006        3985.204          38.125    23995621.871    99940942.810        3099.477          35.375    23995621.987    99940946.791        3099.484          36.500  
R14  24061262.514   128260071.451       -2204.439          40.938    24061274.587    99757875.047       -1714.325          41.438    24061275.082    99757877.054       -1714.316          40.750  
R15  22610839.862   120825545.220         922.374          43.250    22610850.488    93975501.784         717.383          42.625    22610851.149    93975496.772         717.504          42.563  
R16  23375924.235   124870040.675        3789.005          40.188    23375938.478    97121230.610        2946.982          40.250    23375937.857    97121224.606        2946.911          40.375  
R21  20626802.302   110378156.846       -3141.817          47.500    20626811.483    85849699.287       -2443.656          46.063    20626811.918    85849703.277       -2443.612          46.063  
R22  19592261.706   104584832.983         776.109          50.438    19592268.242    81343785.744         603.604          48.000    19592268.294    81343793.739         603.680          48.250  
R23  22776810.053   121840586.935        4287.423          39.875                                                                                                                                  
> 2023 09 10 11 30 07.0000000  0 10                     
R05  23881930.833   127662537.163       -3539.057          40.500    23881943.194    99293085.620       -2752.544          37.750    23881943.068    99293106.600       -2752.348          38.563  
R06  19526644.353   104197917.160       -1127.790          38.000                                                                                                                                  
R07  20160135.571   107918834.122        2371.566          48.813    20160143.874    83936915.606        1844.496          46.500    20160143.711    83936923.591        1844.577          46.625  
R08  23994863.978   128491427.721        3983.923          38.063    23994877.721    99937843.912        3098.442          35.750    23994877.949    99937847.882        3098.521          36.500  
R14  24061676.333   128262276.684       -2205.882          40.875    24061687.919    99759590.240       -1715.690          40.938    24061688.583    99759592.215       -1715.645          40.688  
R15  22610667.342   120824623.888         920.509          43.188    22610677.832    93974785.188         716.015          42.375    22610678.678    93974780.179         716.122          42.563  
R16  23375214.607   124866252.434        3787.688          39.875    23375229.290    97118284.218        2945.902          40.250    23375228.663    97118278.191        2945.974          40.750  
R21  20627389.368   110381299.599       -3143.352          47.313    20627398.842    85852143.656       -2444.882          46.125    20627399.230    85852147.646       -2444.899          45.875  
R22  19592116.406   104584057.925         774.274          50.375    19592122.983    81343182.916         602.229          48.000    19592123.101    81343190.913         602.189          48.250  
R23  22776008.304   121836300.275        4286.146          40.125                                                                                                                                  
> 2023 09 10 11 30 08.0000000  0 10                     
R05  23882592.865   127666075.755       -3538.118          40.563    23882605.085    99295837.837       -2751.697          37.813    23882605.266    99295858.842       -2751.743          38.188  
R06  19526855.944   104199044.803       -1127.444          38.125                                                                                                                                  
R07  20159692.489   107916462.386        2371.990          48.750    20159700.678    83935070.918        1844.848          46.438    20159700.640    83935078.917        1844.904          46.500  
R08  23994120.178   128487443.442        3984.823          38.313    23994133.383    99934745.035        3099.031          36.188    23994134.234    99934749.016        3099.226          36.688  
R14  24062089.855   128264482.484       -2205.642          40.875    24062101.632    99761305.867       -1715.542          40.938    24062102.212    99761307.850       -1715.383          40.375  
R15  22610495.201   120823703.304         920.630          43.063    22610505.735    93974069.186         716.152          42.500    22610506.377    93974064.189         716.011          42.750  
R16  23374505.393   124862464.433        3788.305          40.125    23374519.762    97115338.009        2946.360          40.250    23374519.476    97115332.010        2946.437          40.688  
R21  20627976.720   110384442.830       -3143.049          47.375    20627986.415    85854588.386       -2444.624          46.188    20627986.703    85854592.380       -2444.590          45.938  
R22  19591971.347   104583283.652         774.274          50.438    19591977.841    81342580.700         602.235          48.000    19591978.091    81342588.702         602.263          48.250  
R23  22775207.245   121832013.863        4286.667          40.313                                                                                                                                  
> 2023 09 10 11 30 09.0000000  0 10                     
R05  23883254.445   127669613.817       -3539.092          40.563    23883267.370    99298589.660       -2752.475          37.813    23883267.191    99298610.646       -2752.409          38.063  
R06  19527067.179   104200172.445       -1128.770          38.250                                                                                                                                  
R07  20159249.422   107914090.642        2370.646          48.813    20159257.613    83933226.231        1843.757          46.375    20159257.494    83933234.228        1843.857          46.563  
R08  23993376.315   128483458.841        3983.518          38.063    23993389.353    99931645.898        3098.251          36.438    23993390.213    99931649.888        3098.269          36.813  
R14  24062503.824   128266688.433       -2207.284          40.500    24062515.364    99763021.593       -1716.675          40.500    24062515.801    99763023.587       -1716.615          40.313  
R15  22610323.198   120822783.074         918.875          43.188    22610334.007    93973353.445         714.789          42.500    22610334.077    93973348.446         714.752          42.750  
R16  23373795.789   124858676.323        3787.004          39.938    23373810.738    97112391.711        2945.502          40.375    23373810.398    97112385.700        2945.573          40.375  
R21  20628564.092   110387586.174       -3144.550          47.250    20628573.611    85857033.204       -2445.778          46.188    20628574.154    85857037.196       -2445.730          45.875  
R22  19591826.373   104582509.783         772.532          50.438    19591832.972    81341978.804         600.843          48.063    19591833.156    81341986.800         600.865          48.250  
R23  22774405.888   121827727.301        4285.487          40.625                                                                                                                                  
> 2023 09 10 11 30 10.0000000  0 10                     
R05  23883916.730   127673151.942       -3538.350          40.375    23883929.577    99301341.537       -2751.918          37.438    23883928.973    99301362.539       -2751.871          38.125  
R06  19527278.101   104201300.662       -1128.494          38.000                                                                                                                                  
R07  20158806.578   107911719.468        2370.790          48.938    20158814.669    83931381.987        1843.922          46.375    20158814.530    83931389.983        1844.007          46.625  
R08  23992632.013   128479474.472        3984.098          38.000    23992645.606    99928546.964        3098.678          36.313    23992646.377    99928550.926        3098.890          36.688  
R14  24062917.791   128268895.082       -2207.103          40.500    24062929.131    99764737.886       -1716.589          40.438    24062929.565    99764739.863       -1716.524          40.125  
R15  22610151.359   120821863.768         918.663          43.063    22610161.939    93972638.431         714.619          42.813    22610161.978    93972633.429         714.631          42.688  
R16  23373086.467   124854888.690        3787.224          40.188    23373101.740    97109445.765        2945.726          40.500    23373101.319    97109439.768        2945.736          40.688  
R21  20629151.746   110390730.236       -3144.570          47.188    20629161.107    85859478.582       -2445.728          46.250    20629161.730    85859482.572       -2445.726          46.000  
R22  19591681.549   104581736.881         772.301          50.438    19591688.221    81341377.662         600.637          48.063    19591688.401    81341385.655         600.745          48.188  
R23  22773605.190   121823441.193        4285.832          40.500                                                                                                                                  
> 2023 09 10 11 30 11.0000000  0 10                     
R05  23884578.471   127676689.873       -3537.214          40.500    23884591.379    99304093.250       -2751.216          37.438    23884590.724    99304114.242       -2751.163          38.313  
R06  19527489.768   104202429.197       -1128.207          37.875                                                                                                                                  
R07  20158363.748   107909348.595        2371.386          49.000    20158371.882    83929537.972        1844.444          46.375    20158371.629    83929545.978        1844.404          46.500  
R08  23991888.204   128475490.045        3985.019          37.813    23991901.673    99925447.941        3099.636          36.563    23991902.447    99925451.926        3099.657          36.938  
R14  24063332.042   128271102.177       -2206.708          40.625    24063343.118    99766454.510       -1716.172          40.375    24063343.508    99766456.509       -1716.262          40.313  
R15  22609979.475   120820945.110         918.942          43.125    22609989.938    93971923.933         714.609          42.625    22609989.977    93971918.928         714.665          42.563  
R16  23372378.044   124851101.192        3788.169          40.125    23372392.618    97106499.944        2946.291          40.438    23372392.339    97106493.962        2946.219          40.688  
R21  20629739.311   110393874.717       -3144.095          47.188    20629748.812    85861924.277       -2445.311          46.125    20629749.381    85861928.280       -2445.389          45.875  
R22  19591536.752   104580964.664         772.465          50.313    19591543.571    81340777.045         600.869          48.125    19591543.713    81340785.047         600.896          48.250  
R23  22772804.385   121819155.249        4286.508          40.563                                                                                                                                  
> 2023 09 10 11 30 12.0000000  0 10                     
R05  23885240.498   127680227.508       -3537.703          40.438    23885253.085    99306844.721       -2751.496          37.688    23885252.448    99306865.718       -2751.367          38.438  
R06  19527700.696   104203557.946       -1129.330          38.188                                                                                                                                  
R07  20157920.921   107906977.946        2370.229          49.188    20157929.073    83927694.132        1843.456          46.375    20157928.720    83927702.129        1843.634          46.500  
R08  23991144.060   128471505.466        3984.482          37.813    23991157.951    99922348.831        3099.094          36.500    23991158.127    99922352.841        3098.837          37.000  
R14  24063746.142   128273309.652       -2208.019          40.688    24063757.208    99768171.442       -1717.311          40.375    24063757.410    99768173.422       -1717.122          40.000  
R15  22609807.412   120820027.056         917.547          43.000    22609818.010    93971209.888         713.607          42.625    22609818.110    93971204.887         713.584          42.188  
R16  23371669.214   124847313.830        3786.972          39.938    23371683.649    97103554.243        2945.340          40.563    23371683.395    97103548.230        2945.508          40.938  
R21  20630327.198   110397019.528       -3145.229          47.125    20630336.478    85864370.240       -2446.245          46.125    20630337.104    85864374.234       -2446.218          45.938  
R22  19591392.214   104580193.098         770.955          50.250    19591398.979    81340176.944         599.615          48.125    19591399.172    81340184.940         599.680          48.250  
R23  22772003.420   121814869.405        4285.566          40.813                                                                                                                                  
> 2023 09 10 11 30 13.0000000  0 10                     
R05  23885902.218   127683764.976       -3537.290          40.563    23885914.614    99309596.097       -2751.251          37.625    23885914.213    99309617.093       -2751.254          38.625  
R06  19527912.412   104204687.051       -1129.427          38.000                                                                                                                                  
R07  20157478.189   107904607.625        2370.214          49.250    20157486.301    83925850.548        1843.505          46.250    20157485.885    83925858.545        1843.580          46.563  
R08  23990399.960   128467520.864        3984.745          37.375    23990414.446    99919249.706        3099.233          36.875    23990414.090    99919253.698        3099.325          37.375  
R14  24064160.521   128275517.579       -2208.060          40.438    24064171.138    99769888.719       -1717.546          40.438    24064171.594    99769890.704       -1717.416          40.125  
R15  22609636.028   120819109.708         917.073          43.250    22609646.358    93970496.393         713.366          42.625    22609646.395    93970491.405         713.138          42.250  
R16  23370960.452   124843526.678        3787.038          39.875    23370974.838    97100608.671        2945.520          40.625    23370974.513    97100602.681        2945.560          40.875  
R21  20630915.073   110400164.783       -3145.411          47.125    20630924.201    85866816.544       -2446.432          46.000    20630924.836    85866820.541       -2446.392          46.063  
R22  19591247.797   104579422.281         770.492          50.125    19591254.555    81339577.416         599.226          48.188    19591254.779    81339585.412         599.339          48.250  
R23  22771202.380   121810583.795        4285.464          40.750                                                                                                                                  
> 2023 09 10 11 30 14.0000000  0 10                     
R05  23886564.265   127687302.682       -3537.672          40.625    23886576.810    99312347.646       -2751.651          37.750    23886576.102    99312368.658       -2751.699          38.188  
R06  19528124.032   104205816.884       -1130.058          37.688                                                                                                                                  
R07  20157035.546   107902238.017        2369.414          49.313    20157043.598    83924007.525        1842.914          46.250    20157043.195    83924015.520        1842.853          46.563  
R08  23989655.731   128463536.650        3984.311          37.438    23989670.335    99916150.870        3098.699          36.875    23989669.966    99916154.854        3098.877          37.125  
R14  24064575.193   128277726.403       -2209.125          40.750    24064585.754    99771606.692       -1718.357          40.625    24064586.011    99771608.684       -1718.226          40.250  
R15  22609464.637   120818193.454         915.895          43.063    22609475.090    93969783.770         712.269          42.625    22609474.864    93969778.755         712.263          42.438  
R16  23370251.343   124839740.146        3786.277          39.750    23370265.683    97097663.595        2944.932          40.438    23370265.743    97097657.601        2944.950          41.000  
R21  20631503.069   110403310.909       -3146.379          47.250    20631512.113    85869263.535       -2447.286          46.000    20631512.837    85869267.522       -2447.223          45.938  
R22  19591103.596   104578652.606         769.248          50.000    19591110.298    81338978.781         598.284          48.000    19591110.610    81338986.780         598.309          48.188  
R23  22770400.992   121806298.787        4284.785          40.750                                                                                                                                  
> 2023 09 10 11 30 15.0000000  0 10                     
R05  23887226.532   127690840.343       -3537.734          40.500    23887238.969    99315099.151       -2751.705          37.688    23887237.858    99315120.139       -2751.384          38.563  
R06  19528335.897   104206947.204       -1130.607          37.813                                                                                                                                  
R07  20156593.013   107899868.854        2368.821          49.438    20156600.915    83922164.848        1842.362          46.250    20156600.563    83922172.840        1842.487          46.375  
R08  23988911.557   128459552.509        3983.896          37.188    23988926.130    99913052.085        3098.803          37.063    23988926.081    99913056.082        3098.673          37.250  
R14  24064989.806   128279935.841       -2209.940          41.188    24065000.327    99773325.130       -1718.736          40.625    24065000.633    99773327.127       -1718.784          40.250  
R15  22609293.402   120817278.004         914.896          43.125    22609303.653    93969071.753         711.572          42.688    22609303.435    93969066.736         711.749          42.250  
R16  23369542.687   124835953.935        3785.997          39.500    23369557.264    97094718.792        2944.533          40.500    23369557.004    97094712.773        2944.834          40.750  
R21  20632091.269   110406457.609       -3147.079          47.188    20632100.183    85871710.960       -2447.709          46.000    20632100.873    85871714.953       -2447.630          45.875  
R22  19590959.610   104577883.790         768.258          50.000    19590966.242    81338380.810         597.545          48.000    19590966.561    81338388.808         597.678          48.125  
R23  22769600.220   121802014.117        4284.374          40.813                                                                                                                                  
> 2023 09 10 11 30 16.0000000  0 10                     
R05  23887888.334   127694377.360       -3536.873          40.563    23887900.637    99317850.132       -2750.667          37.750    23887899.358    99317871.138       -2750.886          38.813  
R06  19528547.888   104208077.375       -1130.193          37.750                                                                                                                                  
R07  20156150.322   107897499.575        2369.270          49.563    20156158.309    83920322.066        1842.802          46.313    20156157.943    83920330.060        1842.811          46.313  
R08  23988167.344   128455567.860        3984.789          37.250    23988182.112    99909952.946        3099.330          37.250    23988181.855    99909956.927        3099.427          37.438  
R14  24065404.752   128282145.315       -2209.587          41.438    24065414.840    99775043.630       -1718.643          40.625    24065415.210    99775045.620       -1718.657          40.438  
R15  22609122.145   120816362.790         914.975          42.938    22609132.443    93968359.914         711.638          42.938    22609132.159    93968354.904         711.760          42.500  
R16  23368833.682   124832167.482        3786.483          39.500    23368848.384    97091773.785        2945.193          40.438    23368848.001    97091767.776        2945.138          41.000  
R21  20632679.486   110409604.301       -3146.810          47.313    20632688.190    85874158.383       -2447.469          45.938    20632688.950    85874162.379       -2447.499          46.000  
R22  19590815.690   104577115.248         768.271          50.000    19590822.098    81337783.060         597.512          47.938    19590822.556    81337791.052         597.590          48.188  
R23  22768798.991   121797729.201        4284.945          40.625                                                                                                                                  
> 2023 09 10 11 30 17.0000000  0 10                     
R05  23888550.121   127697914.424       -3537.440          40.813    23888561.699    99320601.201       -2751.625          37.500    23888560.930    99320622.202       -2751.505          38.938  
R06  19528759.964   104209208.210       -1131.574          37.813                                                                                                                                  
R07  20155707.722   107895130.928        2367.908          49.688    20155715.746    83918479.799        1841.651          46.250    20155715.405    83918487.798        1841.577          46.438  
R08  23987423.760   128451583.499        3983.863          37.250    23987438.001    99906854.010        3098.555          37.125    23987437.956    99906858.002        3098.390          37.813  
R14  24065819.753   128284355.620       -2211.200          41.688    24065829.762    99776762.736       -1719.756          41.000    24065830.020    99776764.741       -1719.883          40.438  
R15  22608950.975   120815448.582         913.190          42.875    22608961.043    93967648.864         710.295          42.813    22608961.007    93967643.861         710.249          42.438  
R16  23368124.853   124828381.531        3785.142          39.000    23368140.080    97088829.177        2943.902          40.375    23368139.182    97088823.168        2943.932          40.813  
R21  20633267.550   110412751.745       -3148.277          47.375    20633276.392    85876606.391       -2448.675          46.000    20633277.116    85876610.390       -2448.688          45.938  
R22  19590671.843   104576347.743         766.548          49.813    19590678.301    81337186.116         596.184          48.000    19590678.772    81337194.115         596.076          48.125  
R23  22767997.772   121793444.804        4283.679          40.625                                                                                                                                  
> 2023 09 10 11 30 18.0000000  0 10                     
R05  23889211.608   127701452.206       -3537.800          40.625    23889223.154    99323352.804       -2751.655          37.625    23889222.722    99323373.800       -2751.595          38.188  
R06  19528971.952   104210340.245       -1132.232          38.063                                                                                                                                  
R07  20155265.337   107892763.511        2367.166          49.625    20155273.714    83916638.473        1841.125          46.188    20155273.162    83916646.465        1841.089          46.313  
R08  23986680.232   128447600.076        3983.409          37.063    23986693.995    99903755.790        3098.277          37.188    23986694.200    99903759.770        3098.041          37.625  
R14  24066234.758   128286567.296       -2211.990          41.563    24066245.058    99778482.937       -1720.393          41.000    24066244.982    99778484.934       -1720.574          40.500  
R15  22608780.081   120814535.937         912.282          42.688    22608790.442    93966939.023         709.530          43.000    22608790.214    93966934.034         709.350          42.313  
R16  23367416.287   124824596.705        3784.536          39.000    23367431.637    97085885.417        2943.675          40.563    23367430.707    97085879.416        2943.457          40.750  
R21  20633856.088   110415900.545       -3149.135          47.438    20633864.683    85879055.450       -2449.295          45.938    20633865.559    85879059.449       -2449.379          46.125  
R22  19590528.485   104575581.888         765.391          49.750    19590534.846    81336590.447         595.339          47.938    19590535.295    81336598.443         595.272          48.125  
R23  22767197.014   121789161.507        4283.137          40.438                                                                                                                                  
> 2023 09 10 11 30 19.0000000  0 10                     
R05  23889873.726   127704990.237       -3538.083          40.625    23889884.475    99326104.618       -2751.989          37.625    23889884.611    99326125.610       -2751.726          38.250  
R06  19529184.049   104211473.053       -1132.992          38.063                                                                                                                                  
R07  20154823.173   107890396.883        2366.326          49.813    20154831.578    83914797.757        1840.494          46.250    20154831.070    83914805.753        1840.548          46.438  
R08  23985936.322   128443617.095        3982.646          36.813    23985950.172    99900657.913        3097.740          37.750    23985950.489    99900661.893        3097.922          37.875  
R14  24066650.024   128288779.904       -2213.009          41.750    24066659.944    99780203.844       -1721.170          40.938    24066660.168    99780205.837       -1721.015          40.375  
R15  22608609.379   120813624.449         911.040          42.500    22608619.821    93966230.092         708.612          42.750    22608619.635    93966225.079         708.707          42.250  
R16  23366707.145   124820812.536        3783.960          39.125    23366723.114    97082942.199        2943.003          40.625    23366722.165    97082936.172        2943.233          40.938  
R21  20634444.734   110419050.255       -3150.005          47.625    20634453.263    85881505.224       -2450.027          46.000    20634454.181    85881509.217       -2449.912          46.063  
R22  19590385.200   104574817.198         764.239          49.813    19590391.611    81335995.692         594.403          48.063    19590391.944    81336003.687         594.463          48.188  
R23  22766395.928   121784878.863        4282.388          40.375                                                                                                                                  
> 2023 09 10 11 30 20.0000000  0 10                     
R05  23890535.247   127708527.633       -3537.261          40.875    23890545.975    99328855.882       -2751.105          37.875    23890546.398    99328876.899       -2751.060          38.563  
R06  19529396.443   104212605.720       -1132.717          38.000                                                                                                                                  
R07  20154381.066   107888030.082        2366.799          49.875    20154389.515    83912956.916        1840.789          46.438    20154388.952    83912964.912        1840.850          46.563  
R08  23985192.155   128439633.584        3983.627          36.563    23985206.168    99897559.637        3098.430          38.125    23985206.621    99897563.615        3098.470          38.188  
R14  24067065.021   128290992.470       -2212.668          41.125    24067075.206    99781924.727       -1720.899          41.500    24067075.532    99781926.726       -1721.000          40.438  
R15  22608438.647   120812713.162         911.130          42.688    22608449.537    93965521.312         708.626          42.625    22608449.131    93965516.312         708.656          42.313  
R16  23365998.552   124817028.089        3784.294          39.063    23366014.701    97079998.738        2943.414          40.688    23366013.654    97079992.739        2943.426          40.625  
R21  20635033.525   110422199.919       -3149.666          47.688    20635041.950    85883954.960       -2449.775          46.063    20635042.758    85883958.953       -2449.732          46.125  
R22  19590242.056   104574052.764         764.207          49.813    19590248.284    81335401.125         594.398          48.000    19590248.696    81335409.126         594.342          48.125  
R23  22765595.572   121780595.903        4283.009          40.688                                                                                                                                  
> 2023 09 10 11 30 21.0000000  0 10                     
R05  23891196.716   127712064.934       -3538.038          40.688    23891208.139    99331607.120       -2751.779          37.875    23891207.992    99331628.128       -2751.786          38.250  
R06  19529608.759   104213738.806       -1133.942          38.125                                                                                                                                  
R07  20153938.961   107885663.694        2365.474          50.063    20153947.497    83911116.396        1839.838          46.563    20153946.874    83911124.385        1839.863          46.500  
R08  23984448.402   128435650.138        3982.786          36.750    23984462.180    99894461.431        3097.604          38.188    23984462.798    99894465.398        3097.723          38.000  
R14  24067480.027   128293205.580       -2214.114          41.000    24067490.296    99783646.029       -1722.081          41.625    24067490.719    99783648.042       -1722.146          40.313  
R15  22608268.112   120811802.677         909.382          42.500    22608278.947    93964813.160         707.301          42.688    22608278.915    93964808.169         707.336          42.125  
R16  23365289.850   124813243.926        3783.405          39.000    23365306.032    97077055.526        2942.541          40.875    23365305.206    97077049.517        2942.661          41.188  
R21  20635622.249   110425350.122       -3151.171          47.813    20635630.740    85886405.114       -2450.928          45.938    20635631.411    85886409.108       -2450.875          46.063  
R22  19590098.945   104573289.144         762.525          49.813    19590105.116    81334807.177         593.045          48.063    19590105.626    81334815.187         593.055          48.188  
R23  22764794.859   121776313.208        4281.884          40.500                                                                                                                                  
> 2023 09 10 11 30 22.0000000  0 10                     
R05  23891858.203   127715602.707       -3537.637          40.688    23891870.310    99334358.728       -2751.474          37.688    23891869.739    99334379.712       -2751.383          38.125  
R06  19529821.657   104214872.904       -1134.125          37.875                                                                                                                                  
R07  20153497.071   107883298.272        2365.419          50.125    20153505.640    83909276.618        1839.773          46.625    20153505.087    83909284.616        1839.751          46.500  
R08  23983704.952   128431667.347        3982.950          36.563    23983718.366    99891363.676        3097.967          38.188    23983719.324    99891367.677        3097.811          38.188  
R14  24067895.021   128295419.794       -2214.254          40.688    24067905.446    99785368.203       -1722.261          41.688    24067906.069    99785370.198       -1722.162          40.188  
R15  22608097.690   120810893.545         908.990          42.813    22608108.384    93964106.054         706.957          42.625    22608108.854    93964101.067         706.822          42.250  
R16  23364581.677   124809460.628        3783.162          38.813    23364597.802    97074112.952        2942.614          40.938    23364597.121    97074106.957        2942.621          40.813  
R21  20636211.222   110428501.399       -3151.343          47.875    20636219.742    85888856.097       -2450.978          45.813    20636220.351    85888860.100       -2451.083          46.000  
R22  19589956.120   104572526.903         762.038          49.688    19589962.273    81334214.324         592.766          48.000    19589962.829    81334222.333         592.654          48.188  
R23  22763994.091   121772031.378        4281.845          40.875                                                                                                                                  
> 2023 09 10 11 30 23.0000000  0 10                     
R05  23892519.774   127719140.010       -3537.016          40.375    23892532.181    99337109.956       -2750.906          37.750    23892531.427    99337130.953       -2750.893          38.250  
R06  19530034.531   104216007.092       -1134.300          38.000                                                                                                                                  
R07  20153055.170   107880932.879        2365.398          50.188    20153063.757    83907436.873        1839.733          46.563    20153063.357    83907444.868        1839.731          46.688  
R08  23982961.003   128427684.214        3983.394          36.063    23982974.439    99888265.702        3098.131          38.250    23982975.586    99888269.689        3098.227          38.438  
R14  24068310.184   128297634.248       -2214.766          40.688    24068321.050    99787090.542       -1722.427          41.438    24068321.542    99787092.536       -1722.493          40.500  
R15  22607928.051   120809984.827         908.474          42.813    22607938.254    93963399.286         706.540          42.750    22607938.843    93963394.272         706.725          42.375  
R16  23363873.938   124805677.259        3783.240          38.625    23363889.247    97071170.349        2942.645          41.063    23363888.945    97071164.347        2942.711          41.063  
R21  20636800.068   110431652.871       -3151.554          48.063    20636808.450    85891307.239       -2451.203          45.938    20636809.264    85891311.237       -2451.137          46.250  
R22  19589813.512   104571765.133         761.482          49.750    19589819.754    81333621.846         592.279          47.938    19589820.144    81333629.840         592.456          48.313  
R23  22763194.043   121767749.473        4281.905          40.750                                                                                                                                  
> 2023 09 10 11 30 24.0000000  0 10                     
R05  23893181.727   127722677.094       -3537.323          40.375    23893193.894    99339861.015       -2751.175          37.750    23893193.062    99339882.020       -2751.176          38.125  
R06  19530246.729   104217141.586       -1135.144          38.063                                                                                                                                  
R07  20152613.327   107878567.773        2364.595          50.313    20152621.911    83905597.343        1839.067          46.500    20152621.569    83905605.340        1839.181          46.563  
R08  23982217.119   128423701.038        3982.676          35.938    23982230.916    99885167.681        3097.686          38.188    23982231.695    99885171.666        3097.588          38.500  
R14  24068725.596   128299849.171       -2215.567          40.188    24068736.532    99788813.258       -1723.279          41.188    24068736.977    99788815.237       -1723.100          39.875  
R15  22607758.200   120809076.782         907.371          42.875    22607768.225    93962693.023         705.683          42.688    22607768.841    93962688.018         705.758          42.375  
R16  23363165.707   124801894.113        3782.697          38.688    23363181.212    97068227.905        2942.101          41.000    23363180.792    97068221.887        2942.191          41.188  
R21  20637388.948   110434804.781       -3152.572          48.063    20637397.437    85893758.721       -2451.965          45.938    20637398.257    85893762.716       -2451.932          46.000  
R22  19589670.931   104571004.085         760.342          49.813    19589677.105    81333029.916         591.333          48.000    19589677.517    81333037.920         591.316          48.188  
R23  22762394.053   121763467.733        4281.280          40.813                                                                                                                                  
> 2023 09 10 11 30 25.0000000  0 10                     
R05  23893843.163   127726214.062       -3536.145          40.250    23893855.146    99342612.012       -2750.260          37.750    23893854.835    99342633.007       -2750.384          38.313  
R06  19530459.519   104218276.502       -1134.442          38.250                                                                                                                                  
R07  20152171.852   107876203.058        2365.249          50.500    20152180.040    83903758.120        1839.657          46.500    20152179.840    83903766.117        1839.579          46.688  
R08  23981472.673   128419717.904        3983.698          35.875    23981487.124    99882069.694        3098.515          38.313    23981487.836    99882073.670        3098.459          38.563  
R14  24069140.815   128302064.674       -2215.149          40.500    24069152.366    99790536.423       -1722.819          40.625    24069152.418    99790538.410       -1722.924          39.313  
R15  22607588.282   120808169.510         907.624          43.000    22607598.592    93961987.368         706.000          42.625    22607599.148    93961982.364         705.849          42.250  
R16  23362457.631   124798111.288        3783.386          38.813    23362472.868    97065285.711        2942.800          40.938    23362472.720    97065279.706        2942.683          40.875  
R21  20637978.096   110437957.205       -3151.979          48.188    20637986.506    85896210.610       -2451.552          45.938    20637987.344    85896214.605       -2451.574          46.188  
R22  19589528.487   104570243.862         760.502          49.750    19589534.844    81332438.628         591.602          47.938    19589535.024    81332446.629         591.416          48.250  
R23  22761593.821   121759186.278        4282.093          40.563                                                                                                                                  
> 2023 09 10 11 30 26.0000000  0 10                     
R05  23894504.660   127729750.796       -3536.541          40.188    23894517.084    99345362.791       -2750.581          37.938    23894516.725    99345383.810       -2750.602          38.375  
R06  19530672.115   104219411.637       -1135.062          37.938                                                                                                                                  
R07  20151730.210   107873838.628        2364.436          50.563    20151738.224    83901919.123        1838.960          46.500    20151738.129    83901927.120        1839.090          46.563  
R08  23980728.706   128415734.682        3983.302          35.625    23980742.877    99878971.645        3098.188          38.500    23980743.852    99878975.636        3098.209          38.563  
R14  24069556.672   128304280.587       -2216.009          40.563    24069567.269    99792259.914       -1723.629          40.125    24069567.778    99792261.902       -1723.516          39.375  
R15  22607418.764   120807262.860         906.470          42.875    22607428.968    93961282.209         704.958          42.688    22607429.458    93961277.209         705.003          42.250  
R16  23361749.380   124794328.616        3782.803          38.625    23361764.802    97062343.652        2942.060          41.188    23361764.737    97062337.650        2942.237          41.125  
R21  20638567.198   110441110.017       -3152.860          48.063    20638575.808    85898662.789       -2452.163          46.000    20638576.481    85898666.805       -2452.246          46.000  
R22  19589386.330   104569484.290         759.384          49.875    19589392.499    81331847.858         590.569          47.938    19589392.733    81331855.864         590.657          48.125  
R23  22760793.398   121754904.958        4281.460          40.688                                                                                                                                  
> 2023 09 10 11 30 27.0000000  0 10                     
R05  23895165.930   127733287.489       -3536.940          40.125    23895179.029    99348113.547       -2750.860          38.063    23895178.297    99348134.540       -2750.743          38.375  
R06  19530884.772   104220547.264       -1135.952          38.000                                                                                                                                  
R07  20151288.779   107871474.687        2363.477          50.625    20151296.859    83900080.500        1838.253          46.625    20151296.561    83900088.485        1838.380          46.625  
R08  23979985.378   128411751.504        3982.931          35.438    23979999.318    99875873.643        3097.774          38.688    23979999.913    99875877.633        3097.862          38.563  
R14  24069972.538   128306497.081       -2217.078          41.125    24069982.915    99793983.856       -1724.442          39.625    24069983.317    99793985.848       -1724.242          39.000  
R15  22607249.232   120806357.029         905.150          42.625    22607259.529    93960577.677         704.100          42.750    22607259.832    93960572.665         704.067          42.250  
R16  23361041.265   124790546.277        3781.934          38.750    23361057.069    97059401.835        2941.665          41.125    23361056.677    97059395.823        2941.727          40.875  
R21  20639156.500   110444263.388       -3153.907          48.063    20639165.139    85901115.414       -2453.067          45.938    20639165.710    85901119.402       -2452.977          46.125  
R22  19589244.225   104568725.593         758.034          49.875    19589250.422    81331257.752         589.578          47.875    19589250.629    81331265.754         589.642          48.125  
R23  22759993.352   121750623.972        4280.597          40.500                                                                                                                                  
> 2023 09 10 11 30 28.0000000  0 10                     
R05  23895827.495   127736823.852       -3536.371          39.750    23895840.869    99350864.070       -2750.533          38.188    23895839.873    99350885.046       -2750.275          38.125  
R06  19531097.658   104221683.071       -1136.031          38.125                                                                                                                                  
R07  20150847.210   107869110.952        2363.568          50.688    20150855.335    83898242.041        1838.372          46.625    20150854.984    83898250.031        1838.365          46.750  
R08  23979241.404   128407768.219        3983.195          35.313    23979255.733    99872775.520        3098.045          38.750    23979256.081    99872779.501        3098.066          38.750  
R14  24070388.613   128308713.916       -2217.087          41.688    24070398.426    99795708.071       -1724.381          39.250    24070398.892    99795710.067       -1724.382          39.125  
R15  22607079.541   120805451.762         904.791          42.688    22607090.245    93959873.581         703.766          42.875    22607090.541    93959868.572         703.699          42.500  
R16  23360333.533   124786763.949        3782.270          39.063    23360349.017    97056460.053        2941.767          41.063    23360348.654    97056454.043        2941.735          40.813  
R21  20639745.733   110447417.084       -3153.951          48.063    20639754.436    85903568.284       -2453.100          46.000    20639755.003    85903572.270       -2453.045          46.125  
R22  19589102.217   104567967.498         757.622          50.000    19589108.451    81330668.125         589.317          47.875    19589108.566    81330676.123         589.353          48.250  
R23  22759193.033   121746343.043        4280.784          40.563                                                                                                                                  
> 2023 09 10 11 30 29.0000000  0 10                     
R05  23896488.723   127740360.364       -3536.721          39.750    23896502.079    99353614.664       -2750.638          37.938    23896501.611    99353635.675       -2750.665          38.000  
R06  19531310.890   104222819.543       -1136.916          38.125                                                                                                                                  
R07  20150405.864   107866747.871        2362.624          50.750    20150413.925    83896404.087        1837.652          46.750    20150413.541    83896412.079        1837.570          46.813  
R08  23978497.469   128403785.217        3982.796          35.375    23978511.633    99869677.649        3097.578          38.813    23978512.338    99869681.629        3097.603          38.875  
R14  24070804.810   128310931.558       -2218.261          41.875    24070814.480    99797432.918       -1725.166          39.125    24070814.641    99797434.915       -1725.292          39.250  
R15  22606910.328   120804547.529         903.641          42.625    22606921.195    93959170.278         702.809          42.875    22606921.326    93959165.280         702.716          42.313  
R16  23359625.411   124782982.171        3781.343          39.000    23359640.855    97053518.671        2941.064          41.000    23359640.801    97053512.673        2941.094          40.938  
